{"_id":6541959,"name":"Petrosino","country":"IT","coord":{"lon":12.49993,"lat":37.707741}}
{"_id":2523816,"name":"Petrosino","country":"IT","coord":{"lon":12.49993,"lat":37.707741}}
{"_id":6537302,"name":"Fara Novarese","country":"IT","coord":{"lon":8.45863,"lat":45.551769}}
{"_id":3177204,"name":"Fara Novarese","country":"IT","coord":{"lon":8.45863,"lat":45.551769}}
{"_id":6536402,"name":"Stalettì","country":"IT","coord":{"lon":16.5376,"lat":38.76548}}
{"_id":2525248,"name":"Casa Maio","country":"IT","coord":{"lon":16.533331,"lat":38.76667}}
{"_id":6539964,"name":"Rufina","country":"IT","coord":{"lon":11.48503,"lat":43.824249}}
{"_id":3168813,"name":"Rufina","country":"IT","coord":{"lon":11.48503,"lat":43.824249}}
{"_id":6537587,"name":"Corsano","country":"IT","coord":{"lon":18.369329,"lat":39.889221}}
{"_id":2524918,"name":"Corsano","country":"IT","coord":{"lon":18.369329,"lat":39.889221}}
{"_id":3175190,"name":"Lamole","country":"IT","coord":{"lon":11.35,"lat":43.549999}}
{"_id":6539078,"name":"Falerna","country":"IT","coord":{"lon":16.1707,"lat":39.002491}}
{"_id":2524800,"name":"Falerna","country":"IT","coord":{"lon":16.1707,"lat":39.002491}}
{"_id":6540002,"name":"Camerota","country":"IT","coord":{"lon":15.37276,"lat":40.032501}}
{"_id":3181091,"name":"Camerota","country":"IT","coord":{"lon":15.37276,"lat":40.032501}}
{"_id":6539008,"name":"Pietragalla","country":"IT","coord":{"lon":15.87937,"lat":40.746819}}
{"_id":3170801,"name":"Pietragalla","country":"IT","coord":{"lon":15.87937,"lat":40.746819}}
{"_id":6535921,"name":"Prato allo Stelvio - Prad am Stilfser Joch","country":"IT","coord":{"lon":10.59136,"lat":46.619011}}
{"_id":3172975,"name":"Montechiaro","country":"IT","coord":{"lon":10.56667,"lat":46.633331}}
{"_id":6538555,"name":"Borgo San Lorenzo","country":"IT","coord":{"lon":11.38352,"lat":43.955349}}
{"_id":3181754,"name":"Borgo San Lorenzo","country":"IT","coord":{"lon":11.38352,"lat":43.955349}}
{"_id":6540268,"name":"Stazzema","country":"IT","coord":{"lon":10.3109,"lat":43.99345}}
{"_id":3166180,"name":"Stazzema","country":"IT","coord":{"lon":10.3109,"lat":43.99345}}
{"_id":6541073,"name":"Massignano","country":"IT","coord":{"lon":13.79719,"lat":43.050751}}
{"_id":3173736,"name":"Massignano","country":"IT","coord":{"lon":13.79719,"lat":43.050751}}
{"_id":6540058,"name":"San Teodoro","country":"IT","coord":{"lon":14.69828,"lat":37.84866}}
{"_id":2523271,"name":"San Teodoro","country":"IT","coord":{"lon":14.69828,"lat":37.84866}}
{"_id":6542632,"name":"Sant'Alessio con Vialone","country":"IT","coord":{"lon":9.22605,"lat":45.222359}}
{"_id":6534583,"name":"SantAlessio con Vialone","country":"IT","coord":{"lon":9.22605,"lat":45.222359}}
{"_id":7669365,"name":"Ledro","country":"IT","coord":{"lon":10.73558,"lat":45.88678}}
{"_id":6640027,"name":"Lenzumo","country":"IT","coord":{"lon":10.72918,"lat":45.911991}}
{"_id":6539386,"name":"Borriana","country":"IT","coord":{"lon":8.03862,"lat":45.506161}}
{"_id":3181720,"name":"Borriana","country":"IT","coord":{"lon":8.03862,"lat":45.506161}}
{"_id":6538479,"name":"Codigoro","country":"IT","coord":{"lon":12.10952,"lat":44.831581}}
{"_id":3170330,"name":"Pomposa","country":"IT","coord":{"lon":12.18278,"lat":44.834721}}
{"_id":6541890,"name":"Santa Marinella","country":"IT","coord":{"lon":11.87376,"lat":42.038422}}
{"_id":3167520,"name":"Santa Marinella","country":"IT","coord":{"lon":11.85356,"lat":42.0345}}
{"_id":6537771,"name":"Santa Lucia del Mela","country":"IT","coord":{"lon":15.28228,"lat":38.142761}}
{"_id":2523333,"name":"Santa Lucia del Mela","country":"IT","coord":{"lon":15.28228,"lat":38.142761}}
{"_id":3182775,"name":"Artimino","country":"IT","coord":{"lon":11.03541,"lat":43.783741}}
{"_id":6541461,"name":"Modena","country":"IT","coord":{"lon":10.9192,"lat":44.655869}}
{"_id":3168488,"name":"San Cataldo","country":"IT","coord":{"lon":10.9,"lat":44.666672}}
{"_id":3165770,"name":"Province of Terni","country":"IT","coord":{"lon":12.31667,"lat":42.683331}}
{"_id":6536887,"name":"Baschi","country":"IT","coord":{"lon":12.21796,"lat":42.672829}}
{"_id":3182317,"name":"Baschi","country":"IT","coord":{"lon":12.21796,"lat":42.672829}}
{"_id":6541105,"name":"Cinigiano","country":"IT","coord":{"lon":11.39174,"lat":42.890331}}
{"_id":3179438,"name":"Castiglioncello Bandini","country":"IT","coord":{"lon":11.44175,"lat":42.874989}}
{"_id":6541016,"name":"Villanova Marchesana","country":"IT","coord":{"lon":11.96472,"lat":44.992279}}
{"_id":3164180,"name":"Villanova Marchesana","country":"IT","coord":{"lon":11.96472,"lat":44.992279}}
{"_id":6540702,"name":"Sassano","country":"IT","coord":{"lon":15.56307,"lat":40.337711}}
{"_id":3167097,"name":"Sassano","country":"IT","coord":{"lon":15.56307,"lat":40.337711}}
{"_id":2525029,"name":"Cerasi","country":"IT","coord":{"lon":15.75,"lat":38.166672}}
{"_id":6536502,"name":"Castano Primo","country":"IT","coord":{"lon":8.77544,"lat":45.55357}}
{"_id":3179749,"name":"Castano Primo","country":"IT","coord":{"lon":8.77544,"lat":45.55357}}
{"_id":6536015,"name":"Renon - Ritten","country":"IT","coord":{"lon":11.45728,"lat":46.541519}}
{"_id":3178447,"name":"Collalbo","country":"IT","coord":{"lon":11.46667,"lat":46.533329}}
{"_id":3178062,"name":"Corniglio","country":"IT","coord":{"lon":10.09008,"lat":44.474258}}
{"_id":6537619,"name":"Genzano di Lucania","country":"IT","coord":{"lon":16.030769,"lat":40.847919}}
{"_id":3176204,"name":"Genzano di Lucania","country":"IT","coord":{"lon":16.030769,"lat":40.847919}}
{"_id":6542490,"name":"Champorcher","country":"IT","coord":{"lon":7.62151,"lat":45.62376}}
{"_id":3177529,"name":"Dondena","country":"IT","coord":{"lon":7.55,"lat":45.616669}}
{"_id":6535962,"name":"Cavallino-Treporti","country":"IT","coord":{"lon":12.56192,"lat":45.481602}}
{"_id":3218172,"name":"Treporti","country":"IT","coord":{"lon":12.45644,"lat":45.465248}}
{"_id":3178183,"name":"Consandolo","country":"IT","coord":{"lon":11.76667,"lat":44.650002}}
{"_id":6537696,"name":"Guardavalle","country":"IT","coord":{"lon":16.50351,"lat":38.504978}}
{"_id":2524557,"name":"Guardavalle","country":"IT","coord":{"lon":16.50351,"lat":38.504978}}
{"_id":6538302,"name":"Moriago della Battaglia","country":"IT","coord":{"lon":12.1036,"lat":45.866611}}
{"_id":3172528,"name":"Mosnigo","country":"IT","coord":{"lon":12.07722,"lat":45.873329}}
{"_id":6535967,"name":"Badia - Abtei","country":"IT","coord":{"lon":11.89349,"lat":46.610119}}
{"_id":3171334,"name":"Pedraces","country":"IT","coord":{"lon":11.88333,"lat":46.599998}}
{"_id":6536090,"name":"Bargagli","country":"IT","coord":{"lon":9.09176,"lat":44.44725}}
{"_id":3182357,"name":"Bargagli","country":"IT","coord":{"lon":9.09176,"lat":44.44725}}
{"_id":2524258,"name":"Marina Schiavonia","country":"IT","coord":{"lon":16.533331,"lat":39.650002}}
{"_id":6537011,"name":"Baldissero Torinese","country":"IT","coord":{"lon":7.81162,"lat":45.067951}}
{"_id":3182461,"name":"Baldissero Torinese","country":"IT","coord":{"lon":7.81162,"lat":45.067951}}
{"_id":6540423,"name":"Montese","country":"IT","coord":{"lon":10.94401,"lat":44.271961}}
{"_id":3172735,"name":"Montese","country":"IT","coord":{"lon":10.94401,"lat":44.271961}}
{"_id":6536520,"name":"San Giuliano Milanese","country":"IT","coord":{"lon":9.29185,"lat":45.394272}}
{"_id":3168222,"name":"San Giuliano Milanese","country":"IT","coord":{"lon":9.28757,"lat":45.395741}}
{"_id":3165198,"name":"Trezzano sul Naviglio","country":"IT","coord":{"lon":9.06644,"lat":45.423069}}
{"_id":3164241,"name":"Villafranca di Verona","country":"IT","coord":{"lon":10.84019,"lat":45.352379}}
{"_id":6538467,"name":"Castel San Pietro Terme","country":"IT","coord":{"lon":11.58482,"lat":44.398571}}
{"_id":3179479,"name":"Castel San Pietro Terme","country":"IT","coord":{"lon":11.58482,"lat":44.398571}}
{"_id":3170341,"name":"Pomigliano dArco","country":"IT","coord":{"lon":14.38623,"lat":40.907909}}
{"_id":3167239,"name":"Santo Stino di Livenza","country":"IT","coord":{"lon":12.68083,"lat":45.735001}}
{"_id":6538930,"name":"San Ferdinando di Puglia","country":"IT","coord":{"lon":16.070459,"lat":41.302631}}
{"_id":3168388,"name":"San Ferdinando di Puglia","country":"IT","coord":{"lon":16.070459,"lat":41.302631}}
{"_id":6540753,"name":"San Vito dei Normanni","country":"IT","coord":{"lon":17.707211,"lat":40.65733}}
{"_id":3167184,"name":"San Vito dei Normanni","country":"IT","coord":{"lon":17.707211,"lat":40.65733}}
{"_id":6538728,"name":"Santa Maria Capua Vetere","country":"IT","coord":{"lon":14.25653,"lat":41.080212}}
{"_id":3167561,"name":"Santa Maria Capua Vetere","country":"IT","coord":{"lon":14.25653,"lat":41.080212}}
{"_id":6541903,"name":"Castellammare di Stabia","country":"IT","coord":{"lon":14.48914,"lat":40.715511}}
{"_id":3179661,"name":"Castellammare di Stabia","country":"IT","coord":{"lon":14.48914,"lat":40.715511}}
{"_id":3168231,"name":"San Giovanni Valdarno","country":"IT","coord":{"lon":11.53333,"lat":43.566669}}
{"_id":2525095,"name":"Castellammare del Golfo","country":"IT","coord":{"lon":12.88584,"lat":38.018848}}
{"_id":6537349,"name":"San Giuseppe Vesuviano","country":"IT","coord":{"lon":14.50444,"lat":40.829811}}
{"_id":3168209,"name":"San Giuseppe Vesuviano","country":"IT","coord":{"lon":14.50444,"lat":40.829811}}
{"_id":2523994,"name":"Novara di Sicilia","country":"IT","coord":{"lon":15.13188,"lat":38.015961}}
{"_id":6538573,"name":"Castelfranco di Sotto","country":"IT","coord":{"lon":10.74551,"lat":43.701542}}
{"_id":3179687,"name":"Castelfranco di Sotto","country":"IT","coord":{"lon":10.74551,"lat":43.701542}}
{"_id":6538831,"name":"San Marzano sul Sarno","country":"IT","coord":{"lon":14.58174,"lat":40.77491}}
{"_id":3167996,"name":"San Marzano sul Sarno","country":"IT","coord":{"lon":14.58174,"lat":40.77491}}
{"_id":6539332,"name":"San Vito al Tagliamento","country":"IT","coord":{"lon":12.86002,"lat":45.912922}}
{"_id":3167186,"name":"San Vito al Tagliamento","country":"IT","coord":{"lon":12.85,"lat":45.91444}}
{"_id":6536790,"name":"Porto Recanati","country":"IT","coord":{"lon":13.66128,"lat":43.436459}}
{"_id":3170075,"name":"Porto Recanati","country":"IT","coord":{"lon":13.66128,"lat":43.436459}}
{"_id":6537572,"name":"Ceglie Messapica","country":"IT","coord":{"lon":17.515499,"lat":40.643929}}
{"_id":3179218,"name":"Ceglie Messapico","country":"IT","coord":{"lon":17.515499,"lat":40.643929}}
{"_id":6536858,"name":"Castiglione della Pescaia","country":"IT","coord":{"lon":10.88013,"lat":42.764721}}
{"_id":3179418,"name":"Castiglione della Pescaia","country":"IT","coord":{"lon":10.88093,"lat":42.763458}}
{"_id":6541102,"name":"Colle di Val d'Elsa","country":"IT","coord":{"lon":11.13142,"lat":43.415138}}
{"_id":7118068,"name":"Colle di Val d’Elsa","country":"IT","coord":{"lon":11.13018,"lat":43.418522}}
{"_id":6536732,"name":"San Felice sul Panaro","country":"IT","coord":{"lon":11.1426,"lat":44.833172}}
{"_id":3168389,"name":"San Felice sul Panaro","country":"IT","coord":{"lon":11.1426,"lat":44.833172}}
{"_id":6536796,"name":"Arquata del Tronto","country":"IT","coord":{"lon":13.29628,"lat":42.77264}}
{"_id":3164454,"name":"Vezzano","country":"IT","coord":{"lon":13.26667,"lat":42.75}}
{"_id":6536462,"name":"Morgex","country":"IT","coord":{"lon":7.037,"lat":45.756962}}
{"_id":3178911,"name":"Chanton","country":"IT","coord":{"lon":7.05,"lat":45.783329}}
{"_id":6536798,"name":"Monsampolo del Tronto","country":"IT","coord":{"lon":13.79389,"lat":42.89695}}
{"_id":3173126,"name":"Monsampolo del Tronto","country":"IT","coord":{"lon":13.79389,"lat":42.89695}}
{"_id":6535982,"name":"Termeno sulla strada del vino - Tramin an der Weinstrasse","country":"IT","coord":{"lon":11.24228,"lat":46.341511}}
{"_id":3165783,"name":"Termeno sulla strada del vino","country":"IT","coord":{"lon":11.24228,"lat":46.341511}}
{"_id":6535930,"name":"Silandro - Schlanders","country":"IT","coord":{"lon":10.77116,"lat":46.628422}}
{"_id":3177935,"name":"Corzes","country":"IT","coord":{"lon":10.75,"lat":46.633331}}
{"_id":6538445,"name":"Sant'Ilario d'Enza","country":"IT","coord":{"lon":10.44809,"lat":44.762459}}
{"_id":3167304,"name":"SantIlario dEnza","country":"IT","coord":{"lon":10.44809,"lat":44.762459}}
{"_id":6536009,"name":"Cornedo all'Isarco - Karneid","country":"IT","coord":{"lon":11.39218,"lat":46.493519}}
{"_id":3181538,"name":"Brie","country":"IT","coord":{"lon":11.48333,"lat":46.48333}}
{"_id":6537844,"name":"Uri","country":"IT","coord":{"lon":8.48541,"lat":40.639462}}
{"_id":3165030,"name":"Uri","country":"IT","coord":{"lon":8.48833,"lat":40.637218}}
{"_id":6537398,"name":"Montecorice","country":"IT","coord":{"lon":14.98615,"lat":40.234901}}
{"_id":3172967,"name":"Montecorice","country":"IT","coord":{"lon":14.98615,"lat":40.234901}}
{"_id":6542210,"name":"Granarolo dell'Emilia","country":"IT","coord":{"lon":11.44291,"lat":44.553268}}
{"_id":3163830,"name":"Granarolo del lEmilia","country":"IT","coord":{"lon":11.44291,"lat":44.553268}}
{"_id":6541464,"name":"Alessandria","country":"IT","coord":{"lon":8.61894,"lat":44.912449}}
{"_id":3183299,"name":"Alessandria","country":"IT","coord":{"lon":8.61894,"lat":44.912449}}
{"_id":6536393,"name":"Saviore dell'Adamello","country":"IT","coord":{"lon":10.39966,"lat":46.080502}}
{"_id":3167025,"name":"Saviore dellAdamello","country":"IT","coord":{"lon":10.39966,"lat":46.080502}}
{"_id":6541425,"name":"Palazzolo sull'Oglio","country":"IT","coord":{"lon":9.89716,"lat":45.60368}}
{"_id":3171586,"name":"Pallazzolo sullOglio","country":"IT","coord":{"lon":9.89716,"lat":45.60368}}
{"_id":3168498,"name":"San Casciano in Val di Pesa","country":"IT","coord":{"lon":11.18952,"lat":43.65905}}
{"_id":3167024,"name":"Savogna dIsonzo","country":"IT","coord":{"lon":13.57583,"lat":45.902222}}
{"_id":6535928,"name":"Sarentino - Sarntal","country":"IT","coord":{"lon":11.35577,"lat":46.64352}}
{"_id":3164926,"name":"Valdurna","country":"IT","coord":{"lon":11.43788,"lat":46.739151}}
{"_id":6539102,"name":"Montebello Ionico","country":"IT","coord":{"lon":15.758,"lat":37.982769}}
{"_id":2524072,"name":"Montebello Ionico","country":"IT","coord":{"lon":15.758,"lat":37.982769}}
{"_id":6540270,"name":"Bagno di Romagna","country":"IT","coord":{"lon":11.96104,"lat":43.837761}}
{"_id":3167868,"name":"San Piero in Bagno","country":"IT","coord":{"lon":11.97716,"lat":43.857929}}
{"_id":3175531,"name":"Provincia di Imperia","country":"IT","coord":{"lon":7.78333,"lat":43.966671}}
{"_id":6536071,"name":"Cipressa","country":"IT","coord":{"lon":7.93225,"lat":43.852921}}
{"_id":3178658,"name":"Cipressa","country":"IT","coord":{"lon":7.93144,"lat":43.852051}}
{"_id":3168165,"name":"San Leonardo","country":"IT","coord":{"lon":11.9006,"lat":46.611481}}
{"_id":6539665,"name":"Vernio","country":"IT","coord":{"lon":11.15052,"lat":44.04755}}
{"_id":3164533,"name":"Vernio","country":"IT","coord":{"lon":11.15052,"lat":44.04755}}
{"_id":6537032,"name":"La Thuile","country":"IT","coord":{"lon":6.95099,"lat":45.713661}}
{"_id":3175062,"name":"La Thuile","country":"IT","coord":{"lon":6.95099,"lat":45.713661}}
{"_id":6539815,"name":"Baiano","country":"IT","coord":{"lon":14.61674,"lat":40.952511}}
{"_id":3182484,"name":"Baiano","country":"IT","coord":{"lon":14.61674,"lat":40.952511}}
{"_id":6537775,"name":"Alessandria della Rocca","country":"IT","coord":{"lon":13.45335,"lat":37.566441}}
{"_id":2525749,"name":"Alessandria della Rocca","country":"IT","coord":{"lon":13.45335,"lat":37.566441}}
{"_id":6536181,"name":"San Genesio ed Uniti","country":"IT","coord":{"lon":9.17855,"lat":45.23476}}
{"_id":3168344,"name":"San Genesio ed Uniti","country":"IT","coord":{"lon":9.17855,"lat":45.23476}}
{"_id":3212526,"name":"Sapello","country":"IT","coord":{"lon":8.78271,"lat":44.428452}}
{"_id":6542001,"name":"Bari","country":"IT","coord":{"lon":16.851179,"lat":41.117729}}
{"_id":3180571,"name":"Carbonara di Bari","country":"IT","coord":{"lon":16.866671,"lat":41.066669}}
{"_id":6540419,"name":"San Polo d'Enza","country":"IT","coord":{"lon":10.42399,"lat":44.627159}}
{"_id":3164294,"name":"Villa Bonini","country":"IT","coord":{"lon":10.43333,"lat":44.633331}}
{"_id":6541749,"name":"Rogliano","country":"IT","coord":{"lon":16.320999,"lat":39.18119}}
{"_id":2523589,"name":"Rogliano","country":"IT","coord":{"lon":16.320999,"lat":39.18119}}
{"_id":6536972,"name":"Monte San Biagio","country":"IT","coord":{"lon":13.3522,"lat":41.352509}}
{"_id":3172760,"name":"Monte San Biagio","country":"IT","coord":{"lon":13.3522,"lat":41.352509}}
{"_id":6536379,"name":"Vairano Patenora","country":"IT","coord":{"lon":14.13112,"lat":41.337021}}
{"_id":3175848,"name":"Greci","country":"IT","coord":{"lon":14.13333,"lat":41.333328}}
{"_id":6541128,"name":"Contigliano","country":"IT","coord":{"lon":12.76788,"lat":42.41153}}
{"_id":3178169,"name":"Contigliano","country":"IT","coord":{"lon":12.76788,"lat":42.41153}}
{"_id":6539007,"name":"Palazzo San Gervasio","country":"IT","coord":{"lon":15.98077,"lat":40.93132}}
{"_id":3171619,"name":"Palazzo San Gervasio","country":"IT","coord":{"lon":15.98077,"lat":40.93132}}
{"_id":6534227,"name":"Monte Argentario","country":"IT","coord":{"lon":11.11954,"lat":42.434521}}
{"_id":6457403,"name":"Provincia di Ogliastra","country":"IT","coord":{"lon":9.44481,"lat":39.80814}}
{"_id":6537885,"name":"Villagrande Strisaili","country":"IT","coord":{"lon":9.50754,"lat":39.961262}}
{"_id":2522757,"name":"Villagrande Strisaili","country":"IT","coord":{"lon":9.50556,"lat":39.962219}}
{"_id":3164460,"name":"Vetulonia","country":"IT","coord":{"lon":10.96667,"lat":42.849998}}
{"_id":6542141,"name":"Quartu Sant'Elena","country":"IT","coord":{"lon":9.1832,"lat":39.242001}}
{"_id":2523665,"name":"Quartu SantElena","country":"IT","coord":{"lon":9.18389,"lat":39.24194}}
{"_id":6541731,"name":"Monte Sant'Angelo","country":"IT","coord":{"lon":15.96766,"lat":41.705441}}
{"_id":3172747,"name":"Monte SantAngelo","country":"IT","coord":{"lon":15.96766,"lat":41.705441}}
{"_id":2524850,"name":"Dipignano","country":"IT","coord":{"lon":16.25,"lat":39.25}}
{"_id":2525385,"name":"Dipignano","country":"IT","coord":{"lon":16.25309,"lat":39.237492}}
{"_id":3171243,"name":"Pennes","country":"IT","coord":{"lon":11.41488,"lat":46.780312}}
{"_id":6537410,"name":"Roccagloriosa","country":"IT","coord":{"lon":15.43557,"lat":40.106998}}
{"_id":3169173,"name":"Roccagloriosa","country":"IT","coord":{"lon":15.43557,"lat":40.106998}}
{"_id":3165691,"name":"Tiarno di Sopra","country":"IT","coord":{"lon":10.66947,"lat":45.888401}}
{"_id":6538035,"name":"Santa Maria Maggiore","country":"IT","coord":{"lon":8.46232,"lat":46.135078}}
{"_id":3167528,"name":"Santa Maria Maggiore","country":"IT","coord":{"lon":8.46232,"lat":46.135078}}
{"_id":6536841,"name":"Badia Tedalda","country":"IT","coord":{"lon":12.18644,"lat":43.70726}}
{"_id":3182574,"name":"Badia Tedalda","country":"IT","coord":{"lon":12.18644,"lat":43.70726}}
{"_id":3175077,"name":"Laste","country":"IT","coord":{"lon":11.45,"lat":46.799999}}
{"_id":6538426,"name":"Neviano degli Arduini","country":"IT","coord":{"lon":10.31569,"lat":44.582359}}
{"_id":3172282,"name":"Neviano degli Arduini","country":"IT","coord":{"lon":10.31569,"lat":44.582359}}
{"_id":6543415,"name":"Riva Valdobbia","country":"IT","coord":{"lon":7.95661,"lat":45.830971}}
{"_id":3171353,"name":"Peccia","country":"IT","coord":{"lon":7.9,"lat":45.799999}}
{"_id":6537413,"name":"San Giovanni a Piro","country":"IT","coord":{"lon":15.45097,"lat":40.050301}}
{"_id":3168258,"name":"San Giovanni a Piro","country":"IT","coord":{"lon":15.45097,"lat":40.050301}}
{"_id":6540910,"name":"Cintano","country":"IT","coord":{"lon":7.68812,"lat":45.428558}}
{"_id":3178666,"name":"Cintano","country":"IT","coord":{"lon":7.68812,"lat":45.428558}}
{"_id":6535934,"name":"Terlano - Terlan","country":"IT","coord":{"lon":11.24537,"lat":46.532421}}
{"_id":3166582,"name":"Settequerce","country":"IT","coord":{"lon":11.26667,"lat":46.51667}}
{"_id":6542791,"name":"Valtournenche","country":"IT","coord":{"lon":7.6243,"lat":45.876068}}
{"_id":3177834,"name":"Crépin","country":"IT","coord":{"lon":7.63333,"lat":45.883331}}
{"_id":6535984,"name":"Vipiteno - Sterzing","country":"IT","coord":{"lon":11.43007,"lat":46.892529}}
{"_id":3178386,"name":"Colle Isarco","country":"IT","coord":{"lon":11.43333,"lat":46.933331}}
{"_id":6539934,"name":"Latisana","country":"IT","coord":{"lon":12.99943,"lat":45.782009}}
{"_id":3217612,"name":"Pertegada","country":"IT","coord":{"lon":13.04778,"lat":45.722221}}
{"_id":6540698,"name":"Montesano sulla Marcellana","country":"IT","coord":{"lon":15.70467,"lat":40.276009}}
{"_id":3172753,"name":"Montesano sulla Marcellana","country":"IT","coord":{"lon":15.70467,"lat":40.276009}}
{"_id":3168034,"name":"San Martino al Cimino","country":"IT","coord":{"lon":12.11667,"lat":42.366669}}
{"_id":6536562,"name":"Mezzana Bigli","country":"IT","coord":{"lon":8.84845,"lat":45.05986}}
{"_id":3173507,"name":"Mezzana Bigli","country":"IT","coord":{"lon":8.84845,"lat":45.05986}}
{"_id":6536813,"name":"Massarosa","country":"IT","coord":{"lon":10.3397,"lat":43.867641}}
{"_id":3169671,"name":"Quiesa","country":"IT","coord":{"lon":10.36667,"lat":43.849998}}
{"_id":6538537,"name":"Montedinove","country":"IT","coord":{"lon":13.58849,"lat":42.97155}}
{"_id":3172947,"name":"Montedinove","country":"IT","coord":{"lon":13.58849,"lat":42.97155}}
{"_id":6539176,"name":"Villafranca Sicula","country":"IT","coord":{"lon":13.28925,"lat":37.588139}}
{"_id":2522762,"name":"Villafranca Sicula","country":"IT","coord":{"lon":13.28925,"lat":37.588139}}
{"_id":6537689,"name":"Santa Domenica Talao","country":"IT","coord":{"lon":15.85458,"lat":39.8195}}
{"_id":2523355,"name":"Santa Domenica Talao","country":"IT","coord":{"lon":15.85458,"lat":39.8195}}
{"_id":6541372,"name":"Castelpetroso","country":"IT","coord":{"lon":14.34502,"lat":41.559422}}
{"_id":3175603,"name":"Il Casale","country":"IT","coord":{"lon":14.35,"lat":41.566669}}
{"_id":3174588,"name":"Longostagno","country":"IT","coord":{"lon":11.48333,"lat":46.549999}}
{"_id":6542252,"name":"Casalfiumanese","country":"IT","coord":{"lon":11.62402,"lat":44.29686}}
{"_id":3180192,"name":"Casal Fiumanese","country":"IT","coord":{"lon":11.62402,"lat":44.29686}}
{"_id":6537751,"name":"Santa Cristina Gela","country":"IT","coord":{"lon":13.32815,"lat":37.984249}}
{"_id":2523364,"name":"Santa Cristina Gela","country":"IT","coord":{"lon":13.32815,"lat":37.984249}}
{"_id":6535893,"name":"Chiusa - Klausen","country":"IT","coord":{"lon":11.57198,"lat":46.642521}}
{"_id":3174978,"name":"Lazfons","country":"IT","coord":{"lon":11.55,"lat":46.666672}}
{"_id":6542280,"name":"Montiglio Monferrato","country":"IT","coord":{"lon":8.09723,"lat":45.06525}}
{"_id":3166990,"name":"Scandeluzza","country":"IT","coord":{"lon":8.13333,"lat":45.049999}}
{"_id":6535935,"name":"Tesimo - Tisens","country":"IT","coord":{"lon":11.16937,"lat":46.565418}}
{"_id":3170560,"name":"Plazzoles","country":"IT","coord":{"lon":11.11667,"lat":46.533329}}
{"_id":6537957,"name":"Scapoli","country":"IT","coord":{"lon":14.05872,"lat":41.61552}}
{"_id":3179545,"name":"Castelnuovo","country":"IT","coord":{"lon":14.05,"lat":41.616669}}
{"_id":6538860,"name":"Pietracamela","country":"IT","coord":{"lon":13.55539,"lat":42.52354}}
{"_id":3170817,"name":"Pietracamela","country":"IT","coord":{"lon":13.55539,"lat":42.52354}}
{"_id":6541550,"name":"Montesilvano","country":"IT","coord":{"lon":14.138,"lat":42.503941}}
{"_id":3172729,"name":"Montesilvano Marina","country":"IT","coord":{"lon":14.15,"lat":42.51667}}
{"_id":3182587,"name":"Badia","country":"IT","coord":{"lon":12,"lat":43.083328}}
{"_id":6537103,"name":"Rasura","country":"IT","coord":{"lon":9.55274,"lat":46.10059}}
{"_id":3169573,"name":"Rasura","country":"IT","coord":{"lon":9.55274,"lat":46.10059}}
{"_id":6542182,"name":"Montopoli di Sabina","country":"IT","coord":{"lon":12.69208,"lat":42.24593}}
{"_id":3172651,"name":"Montopoli in Sabina","country":"IT","coord":{"lon":12.69208,"lat":42.24593}}
{"_id":6538657,"name":"Pescorocchiano","country":"IT","coord":{"lon":13.14619,"lat":42.206429}}
{"_id":3178304,"name":"Collipace","country":"IT","coord":{"lon":13.1,"lat":42.216671}}
{"_id":3214791,"name":"Ravaldino","country":"IT","coord":{"lon":12.04083,"lat":44.145828}}
{"_id":292673,"name":"Ash Shāriqah","country":"AE","coord":{"lon":55.75,"lat":25}}
{"_id":292672,"name":"Sharjah","country":"AE","coord":{"lon":55.403301,"lat":25.357309}}
{"_id":6691135,"name":"Al Ghuwair","country":"AE","coord":{"lon":55.391911,"lat":25.35985}}
{"_id":292224,"name":"Dubayy","country":"AE","coord":{"lon":55.333328,"lat":25}}
{"_id":292223,"name":"Dubai","country":"AE","coord":{"lon":55.304722,"lat":25.258169}}
{"_id":290845,"name":"Shandaghah","country":"AE","coord":{"lon":55.283329,"lat":25.258329}}
{"_id":292913,"name":"Al Ayn","country":"AE","coord":{"lon":55.760559,"lat":24.191669}}
{"_id":292879,"name":"Al Fujayrah","country":"AE","coord":{"lon":56.25,"lat":25.133329}}
{"_id":292878,"name":"Al Fujayrah","country":"AE","coord":{"lon":56.341412,"lat":25.116409}}
{"_id":291110,"name":"Rafā‘","country":"AE","coord":{"lon":56.35014,"lat":25.34701}}
{"_id":2698691,"name":"Kungsholmen","country":"SE","coord":{"lon":18.04118,"lat":59.331829}}
{"_id":2688368,"name":"Norrkoping","country":"SE","coord":{"lon":16.1826,"lat":58.594189}}
{"_id":2692965,"name":"Malmö Kommun","country":"SE","coord":{"lon":13,"lat":55.583328}}
{"_id":2692969,"name":"Malmoe","country":"SE","coord":{"lon":13.00073,"lat":55.605869}}
{"_id":2715953,"name":"Eskilstuna","country":"SE","coord":{"lon":16.5077,"lat":59.366611}}
{"_id":602912,"name":"Skellefteå Kommun","country":"SE","coord":{"lon":21.133329,"lat":64.75}}
{"_id":7304459,"name":"Erikslid","country":"SE","coord":{"lon":20.95676,"lat":64.76033}}
{"_id":2706767,"name":"Helsingborg","country":"SE","coord":{"lon":12.69437,"lat":56.04673}}
{"_id":2711533,"name":"Göteborgs Kommun","country":"SE","coord":{"lon":11.91667,"lat":57.700001}}
{"_id":2711537,"name":"Goeteborg","country":"SE","coord":{"lon":11.96679,"lat":57.707161}}
{"_id":2696329,"name":"Lidkoping","country":"SE","coord":{"lon":13.15765,"lat":58.505169}}
{"_id":2666219,"name":"Uppsala Kommun","country":"SE","coord":{"lon":17.6,"lat":59.866669}}
{"_id":2666199,"name":"Uppsala","country":"SE","coord":{"lon":17.64543,"lat":59.858501}}
{"_id":2716080,"name":"Eriksberg","country":"SE","coord":{"lon":17.616671,"lat":59.849998}}
{"_id":2681587,"name":"Rosenlund","country":"SE","coord":{"lon":14.2,"lat":57.783329}}
{"_id":2680068,"name":"Sandvikens Kommun","country":"SE","coord":{"lon":16.66667,"lat":60.616669}}
{"_id":2680075,"name":"Sandviken","country":"SE","coord":{"lon":16.76667,"lat":60.616669}}
{"_id":2670878,"name":"Sundbybergs Kommun","country":"SE","coord":{"lon":17.94067,"lat":59.365391}}
{"_id":2717126,"name":"Duvbo","country":"SE","coord":{"lon":17.961531,"lat":59.368759}}
{"_id":2722799,"name":"Bergholmen","country":"SE","coord":{"lon":13.51576,"lat":59.36338}}
{"_id":606530,"name":"Bodens Kommun","country":"SE","coord":{"lon":21.66667,"lat":65.833328}}
{"_id":603819,"name":"Overluleå","country":"SE","coord":{"lon":21.700001,"lat":65.833328}}
{"_id":2702259,"name":"Kalmar Län","country":"SE","coord":{"lon":16,"lat":57.333328}}
{"_id":2686161,"name":"Oskarshamns Kommun","country":"SE","coord":{"lon":16.33333,"lat":57.366669}}
{"_id":2686162,"name":"Oskarshamn","country":"SE","coord":{"lon":16.44837,"lat":57.264549}}
{"_id":2720382,"name":"Borlänge Kommun","country":"SE","coord":{"lon":15.41667,"lat":60.466671}}
{"_id":2691798,"name":"Mjälga","country":"SE","coord":{"lon":15.43333,"lat":60.48333}}
{"_id":2699957,"name":"Kolla","country":"SE","coord":{"lon":12.06667,"lat":57.48333}}
{"_id":2664996,"name":"Varberg","country":"SE","coord":{"lon":12.25078,"lat":57.105572}}
{"_id":2694759,"name":"Linköpings Kommun","country":"SE","coord":{"lon":15.6187,"lat":58.410461}}
{"_id":8131853,"name":"Linköpings S:t Lars","country":"SE","coord":{"lon":15.62492,"lat":58.411388}}
{"_id":8126430,"name":"Linköping socken","country":"SE","coord":{"lon":15.62732,"lat":58.399471}}
{"_id":2694762,"name":"Linkoping","country":"SE","coord":{"lon":15.62157,"lat":58.410858}}
{"_id":2664179,"name":"Västmanlands Län","country":"SE","coord":{"lon":16.33333,"lat":59.75}}
{"_id":2664441,"name":"Västerås Kommun","country":"SE","coord":{"lon":16.58333,"lat":59.616669}}
{"_id":2664454,"name":"Vasteras","country":"SE","coord":{"lon":16.552759,"lat":59.616169}}
{"_id":604488,"name":"Luleå Kommun","country":"SE","coord":{"lon":22.16667,"lat":65.683327}}
{"_id":604490,"name":"Lulea","country":"SE","coord":{"lon":22.15465,"lat":65.584152}}
{"_id":2602687,"name":"Södermalm","country":"SE","coord":{"lon":17.28611,"lat":62.38472}}
{"_id":2726755,"name":"Alingsås Kommun","country":"SE","coord":{"lon":12.5,"lat":58}}
{"_id":2689513,"name":"Nolhaga","country":"SE","coord":{"lon":12.51746,"lat":57.93367}}
{"_id":2700801,"name":"Kiruna Kommun","country":"SE","coord":{"lon":19.5,"lat":68.166672}}
{"_id":605155,"name":"Kiruna","country":"SE","coord":{"lon":20.22513,"lat":67.855721}}
{"_id":2725469,"name":"Arboga Kommun","country":"SE","coord":{"lon":15.83333,"lat":59.383331}}
{"_id":2725471,"name":"Arboga","country":"SE","coord":{"lon":15.83882,"lat":59.393871}}
{"_id":2702261,"name":"Kalmar","country":"SE","coord":{"lon":16.361629,"lat":56.661572}}
{"_id":2698433,"name":"Kvarnholmen","country":"SE","coord":{"lon":16.366671,"lat":56.666672}}
{"_id":2690959,"name":"Motala Kommun","country":"SE","coord":{"lon":15.16667,"lat":58.549999}}
{"_id":6944523,"name":"Duvedal","country":"SE","coord":{"lon":15.0505,"lat":58.547901}}
{"_id":2686466,"name":"Örnsköldsviks Kommun","country":"SE","coord":{"lon":18.716669,"lat":63.283329}}
{"_id":2686469,"name":"Ornskoldsvik","country":"SE","coord":{"lon":18.71525,"lat":63.290909}}
{"_id":2720501,"name":"Boras","country":"SE","coord":{"lon":12.9401,"lat":57.721008}}
{"_id":2662880,"name":"Vimmerby Kommun","country":"SE","coord":{"lon":15.83333,"lat":57.683331}}
{"_id":2715572,"name":"Falkenbergs Kommun","country":"SE","coord":{"lon":12.53333,"lat":56.900002}}
{"_id":3326084,"name":"Anderstorp","country":"SE","coord":{"lon":12.5,"lat":56.900002}}
{"_id":2670883,"name":"Sundby","country":"SE","coord":{"lon":17.033331,"lat":59.383331}}
{"_id":2685747,"name":"Östersunds Kommun","country":"SE","coord":{"lon":14.91667,"lat":63.25}}
{"_id":2685750,"name":"Ostersund","country":"SE","coord":{"lon":14.63566,"lat":63.179199}}
{"_id":2677233,"name":"Skövde Kommun","country":"SE","coord":{"lon":13.91667,"lat":58.416672}}
{"_id":2701980,"name":"Käpplunda","country":"SE","coord":{"lon":13.83333,"lat":58.400002}}
{"_id":2685092,"name":"Ovanåkers Kommun","country":"SE","coord":{"lon":15.81667,"lat":61.416672}}
{"_id":2681416,"name":"Roteberg","country":"SE","coord":{"lon":15.81667,"lat":61.383331}}
{"_id":2701714,"name":"Karlskoga Kommun","country":"SE","coord":{"lon":14.55,"lat":59.333328}}
{"_id":2701715,"name":"Karlskoga","country":"SE","coord":{"lon":14.52386,"lat":59.326672}}
{"_id":605387,"name":"Kalix Kommun","country":"SE","coord":{"lon":23,"lat":66}}
{"_id":603291,"name":"Rolfs","country":"SE","coord":{"lon":23.116671,"lat":65.849998}}
{"_id":2667872,"name":"Torsby Kommun","country":"SE","coord":{"lon":13.08333,"lat":60.5}}
{"_id":2667876,"name":"Torsby","country":"SE","coord":{"lon":13.0082,"lat":60.135269}}
{"_id":2697859,"name":"Laholms Kommun","country":"SE","coord":{"lon":13.23333,"lat":56.5}}
{"_id":2697861,"name":"Laholm","country":"SE","coord":{"lon":13.04371,"lat":56.51207}}
{"_id":604382,"name":"Matarengi","country":"SE","coord":{"lon":23.66667,"lat":66.383331}}
{"_id":606833,"name":"Älvsbyns Kommun","country":"SE","coord":{"lon":21,"lat":65.699997}}
{"_id":606834,"name":"AElvsbyn","country":"SE","coord":{"lon":21.001619,"lat":65.676239}}
{"_id":2715458,"name":"Faluns Kommun","country":"SE","coord":{"lon":15.63492,"lat":60.604832}}
{"_id":2715459,"name":"Falun","country":"SE","coord":{"lon":15.62597,"lat":60.603569}}
{"_id":2669046,"name":"Timrå Kommun","country":"SE","coord":{"lon":17.30694,"lat":62.477779}}
{"_id":2716854,"name":"Edsgården","country":"SE","coord":{"lon":17.299999,"lat":62.48333}}
{"_id":2692611,"name":"Mariestads Kommun","country":"SE","coord":{"lon":13.83333,"lat":58.700001}}
{"_id":2683709,"name":"Radbyn","country":"SE","coord":{"lon":13.8,"lat":58.700001}}
{"_id":2715658,"name":"Fagerslätt","country":"SE","coord":{"lon":14.28333,"lat":57.799999}}
{"_id":605857,"name":"Haparanda Kommun","country":"SE","coord":{"lon":24.1,"lat":65.833328}}
{"_id":605859,"name":"Haparanda","country":"SE","coord":{"lon":24.136761,"lat":65.835487}}
{"_id":2600754,"name":"Brynäs","country":"SE","coord":{"lon":17.17103,"lat":60.672508}}
{"_id":2679300,"name":"Sigtuna Kommun","country":"SE","coord":{"lon":17.91667,"lat":59.650002}}
{"_id":2679302,"name":"Sigtuna","country":"SE","coord":{"lon":17.72361,"lat":59.61731}}
{"_id":2680657,"name":"Sala Kommun","country":"SE","coord":{"lon":16.6,"lat":59.966671}}
{"_id":2680662,"name":"Sala","country":"SE","coord":{"lon":16.60655,"lat":59.91993}}
{"_id":2705085,"name":"Hönekulla","country":"SE","coord":{"lon":12.13333,"lat":57.650002}}
{"_id":2688248,"name":"Norrtälje Kommun","country":"SE","coord":{"lon":18.700001,"lat":59.76667}}
{"_id":2688250,"name":"Norrtalje","country":"SE","coord":{"lon":18.70496,"lat":59.757992}}
{"_id":2690167,"name":"Nässjö Kommun","country":"SE","coord":{"lon":14.68333,"lat":57.633331}}
{"_id":2690170,"name":"Nassjo","country":"SE","coord":{"lon":14.69676,"lat":57.653069}}
{"_id":2664201,"name":"Västerviks Kommun","country":"SE","coord":{"lon":16.38306,"lat":57.799721}}
{"_id":2664203,"name":"Vaestervik","country":"SE","coord":{"lon":16.637329,"lat":57.7584}}
{"_id":2668516,"name":"Toftenäs","country":"SE","coord":{"lon":11.55,"lat":58}}
{"_id":2699281,"name":"Kristinehamns Kommun","country":"SE","coord":{"lon":14.13333,"lat":59.299999}}
{"_id":2673969,"name":"Stensta","country":"SE","coord":{"lon":14.1,"lat":59.333328}}
{"_id":2701221,"name":"Katrineholms Kommun","country":"SE","coord":{"lon":16.200001,"lat":59}}
{"_id":2701223,"name":"Katrineholm","country":"SE","coord":{"lon":16.207211,"lat":58.995869}}
{"_id":2725898,"name":"Ängelholms Kommun","country":"SE","coord":{"lon":12.88333,"lat":56.23333}}
{"_id":2682850,"name":"Rebbelberga","country":"SE","coord":{"lon":12.86667,"lat":56.25}}
{"_id":2687897,"name":"Nybro Kommun","country":"SE","coord":{"lon":15.93333,"lat":56.716671}}
{"_id":2687902,"name":"Nybro","country":"SE","coord":{"lon":15.90714,"lat":56.74461}}
{"_id":2721357,"name":"Blekinge Län","country":"SE","coord":{"lon":15.33333,"lat":56.333328}}
{"_id":2701725,"name":"Karlshamns Kommun","country":"SE","coord":{"lon":14.86667,"lat":56.25}}
{"_id":2701727,"name":"Karlshamn","country":"SE","coord":{"lon":14.86188,"lat":56.170601}}
{"_id":2700854,"name":"Kinda Kommun","country":"SE","coord":{"lon":15.88333,"lat":58}}
{"_id":2700800,"name":"Kisa","country":"SE","coord":{"lon":15.63303,"lat":57.987808}}
{"_id":2697719,"name":"Landskrona Kommun","country":"SE","coord":{"lon":12.83333,"lat":55.883331}}
{"_id":2697720,"name":"Landskrona","country":"SE","coord":{"lon":12.83016,"lat":55.8708}}
{"_id":2698753,"name":"Kumla Kommun","country":"SE","coord":{"lon":15.13333,"lat":59.133331}}
{"_id":2698767,"name":"Kumla","country":"SE","coord":{"lon":15.14341,"lat":59.127701}}
{"_id":3332888,"name":"Hedegärde","country":"SE","coord":{"lon":11.95,"lat":58.366669}}
{"_id":2669117,"name":"Tibro Kommun","country":"SE","coord":{"lon":14.2,"lat":58.416672}}
{"_id":2669118,"name":"Tibro","country":"SE","coord":{"lon":14.16162,"lat":58.42453}}
{"_id":2712044,"name":"Gislaveds Kommun","country":"SE","coord":{"lon":13.45,"lat":57.25}}
{"_id":2712045,"name":"Gislaved","country":"SE","coord":{"lon":13.54078,"lat":57.304401}}
{"_id":2725371,"name":"Arjeplogs Kommun","country":"SE","coord":{"lon":17,"lat":66.416672}}
{"_id":2725372,"name":"Arjeplog","country":"SE","coord":{"lon":17.886061,"lat":66.051727}}
{"_id":2669112,"name":"Tidaholms Kommun","country":"SE","coord":{"lon":13.93333,"lat":58.200001}}
{"_id":2669113,"name":"Tidaholm","country":"SE","coord":{"lon":13.95824,"lat":58.180351}}
{"_id":2727664,"name":"Abisko","country":"SE","coord":{"lon":18.82868,"lat":68.349136}}
{"_id":2724956,"name":"Åsele Kommun","country":"SE","coord":{"lon":17.33333,"lat":64.166672}}
{"_id":2724958,"name":"Asele","country":"SE","coord":{"lon":17.33333,"lat":64.166672}}
{"_id":2692349,"name":"Matfors","country":"SE","coord":{"lon":17.033331,"lat":62.349998}}
{"_id":2663036,"name":"Viken","country":"SE","coord":{"lon":12.56667,"lat":56.150002}}
{"_id":2676214,"name":"Söderköpings Kommun","country":"SE","coord":{"lon":16.33333,"lat":58.450001}}
{"_id":2676215,"name":"Soederkoeping","country":"SE","coord":{"lon":16.32221,"lat":58.480572}}
{"_id":2694502,"name":"Ljusdals Kommun","country":"SE","coord":{"lon":15.7,"lat":61.866669}}
{"_id":2694503,"name":"Ljusdal","country":"SE","coord":{"lon":16.091261,"lat":61.828831}}
{"_id":2700754,"name":"Kivik","country":"SE","coord":{"lon":14.25,"lat":55.683331}}
{"_id":2717400,"name":"Dorotea Kommun","country":"SE","coord":{"lon":16,"lat":64.5}}
{"_id":2717401,"name":"Dorotea","country":"SE","coord":{"lon":16.413059,"lat":64.261848}}
{"_id":2675078,"name":"Sorsele Kommun","country":"SE","coord":{"lon":16.75,"lat":65.75}}
{"_id":2675079,"name":"Sorsele","country":"SE","coord":{"lon":17.53702,"lat":65.534843}}
{"_id":606239,"name":"Esrange","country":"SE","coord":{"lon":21.116671,"lat":67.883331}}
{"_id":2710683,"name":"Grimsta","country":"SE","coord":{"lon":17.86935,"lat":59.358398}}
{"_id":2721518,"name":"Blackeberg","country":"SE","coord":{"lon":17.879049,"lat":59.348572}}
{"_id":2671389,"name":"Strängnäs Kommun","country":"SE","coord":{"lon":17.033331,"lat":59.349998}}
{"_id":2692633,"name":"Mariefred","country":"SE","coord":{"lon":17.216669,"lat":59.26667}}
{"_id":2717824,"name":"Delsbo","country":"SE","coord":{"lon":16.55571,"lat":61.801041}}
{"_id":2690578,"name":"Nacka Kommun","country":"SE","coord":{"lon":18.17551,"lat":59.310768}}
{"_id":2675382,"name":"Solsidan","country":"SE","coord":{"lon":18.299999,"lat":59.283329}}
{"_id":2693081,"name":"Malen","country":"SE","coord":{"lon":12.85,"lat":56.433331}}
{"_id":2679106,"name":"Simrishamns Kommun","country":"SE","coord":{"lon":14.3,"lat":55.566669}}
{"_id":2679107,"name":"Simrishamn","country":"SE","coord":{"lon":14.35037,"lat":55.55653}}
{"_id":2704397,"name":"Hultsfreds Kommun","country":"SE","coord":{"lon":15.8,"lat":57.400002}}
{"_id":2662706,"name":"Virserum","country":"SE","coord":{"lon":15.58333,"lat":57.316669}}
{"_id":603760,"name":"Pajala Kommun","country":"SE","coord":{"lon":23,"lat":67.25}}
{"_id":603761,"name":"Pajala","country":"SE","coord":{"lon":23.36607,"lat":67.212837}}
{"_id":2726330,"name":"Älvdalens Kommun","country":"SE","coord":{"lon":13.75,"lat":61.333328}}
{"_id":2726332,"name":"AElvdalen","country":"SE","coord":{"lon":14.03935,"lat":61.227741}}
{"_id":2706183,"name":"Hjo Kommun","country":"SE","coord":{"lon":14.21667,"lat":58.299999}}
{"_id":2706184,"name":"Hjo","country":"SE","coord":{"lon":14.28784,"lat":58.301331}}
{"_id":2694366,"name":"Lodose","country":"SE","coord":{"lon":12.13333,"lat":58.033329}}
{"_id":606388,"name":"Bredträskheden","country":"SE","coord":{"lon":21.5,"lat":65.650002}}
{"_id":2708366,"name":"Halmstad","country":"SE","coord":{"lon":13.03333,"lat":55.950001}}
{"_id":606266,"name":"Edefors","country":"SE","coord":{"lon":20.9,"lat":66.216667}}
{"_id":1516905,"name":"Taraz","country":"KZ","coord":{"lon":71.366669,"lat":42.900002}}
{"_id":609862,"name":"Atyraū Oblysy","country":"KZ","coord":{"lon":52,"lat":47}}
{"_id":610529,"name":"Atyrau","country":"KZ","coord":{"lon":51.883331,"lat":47.116669}}
{"_id":1520239,"name":"Pavlodar Oblysy","country":"KZ","coord":{"lon":76,"lat":52}}
{"_id":1520240,"name":"Pavlodar","country":"KZ","coord":{"lon":76.949997,"lat":52.299999}}
{"_id":1517243,"name":"Seyfūllīn","country":"KZ","coord":{"lon":69.026672,"lat":53.534721}}
{"_id":1538317,"name":"Astana Qalasy","country":"KZ","coord":{"lon":71.5,"lat":51.166672}}
{"_id":1526273,"name":"Astana","country":"KZ","coord":{"lon":71.445976,"lat":51.180099}}
{"_id":1526269,"name":"Aqtau","country":"KZ","coord":{"lon":73.062782,"lat":50.236671}}
{"_id":1524325,"name":"Ekibastuz","country":"KZ","coord":{"lon":75.366669,"lat":51.666672}}
{"_id":1518262,"name":"Temirtau","country":"KZ","coord":{"lon":72.948334,"lat":50.05444}}
{"_id":1519422,"name":"Semey","country":"KZ","coord":{"lon":80.227501,"lat":50.41111}}
{"_id":1526021,"name":"Bakyrshik","country":"KZ","coord":{"lon":81.583611,"lat":49.71611}}
{"_id":1524815,"name":"Zhibek Zholy","country":"KZ","coord":{"lon":69.361671,"lat":41.474171}}
{"_id":1520885,"name":"Kurchatov","country":"KZ","coord":{"lon":78.540001,"lat":50.756672}}
{"_id":1519922,"name":"Qyzylorda","country":"KZ","coord":{"lon":65.509171,"lat":44.852779}}
{"_id":1519395,"name":"Serebryansk","country":"KZ","coord":{"lon":83.289169,"lat":49.692501}}
{"_id":1526970,"name":"Abay","country":"KZ","coord":{"lon":72.853889,"lat":49.631111}}
{"_id":1521315,"name":"Lisakovsk","country":"KZ","coord":{"lon":62.49361,"lat":52.536942}}
{"_id":1516601,"name":"Zhetiqara","country":"KZ","coord":{"lon":61.200562,"lat":52.19083}}
{"_id":1517501,"name":"Turar Ryskulov","country":"KZ","coord":{"lon":70.333328,"lat":42.533329}}
{"_id":1516589,"name":"Zhezqazghan","country":"KZ","coord":{"lon":67.76667,"lat":47.783329}}
{"_id":1519948,"name":"Qapshaghay","country":"KZ","coord":{"lon":77.083328,"lat":43.883331}}
{"_id":609575,"name":"Karashyganak","country":"KZ","coord":{"lon":53.384998,"lat":51.452221}}
{"_id":1520296,"name":"Otrar","country":"KZ","coord":{"lon":68.26667,"lat":42.76667}}
{"_id":1535785,"name":"Dostyk","country":"KZ","coord":{"lon":76.650833,"lat":52.781109}}
{"_id":1521370,"name":"Ridder","country":"KZ","coord":{"lon":83.513329,"lat":50.355}}
{"_id":1532954,"name":"Pobeda","country":"KZ","coord":{"lon":75.260559,"lat":53.48333}}
{"_id":1519931,"name":"Qaskeleng","country":"KZ","coord":{"lon":76.622223,"lat":43.200279}}
{"_id":1516438,"name":"Zyryanovsk","country":"KZ","coord":{"lon":84.271942,"lat":49.738609}}
{"_id":609404,"name":"Khromtau","country":"KZ","coord":{"lon":58.434719,"lat":50.250278}}
{"_id":1520381,"name":"Ordzhonikidze","country":"KZ","coord":{"lon":61.740829,"lat":52.441109}}
{"_id":1518518,"name":"Talghar","country":"KZ","coord":{"lon":77.23278,"lat":43.30444}}
{"_id":1523605,"name":"Qalqaman","country":"KZ","coord":{"lon":76.021111,"lat":51.952499}}
{"_id":1524298,"name":"Aqsu","country":"KZ","coord":{"lon":76.916672,"lat":52.033329}}
{"_id":1518003,"name":"Aqmola Oblysy","country":"KZ","coord":{"lon":70,"lat":51.5}}
{"_id":1537939,"name":"Stepnogorsk","country":"KZ","coord":{"lon":71.88694,"lat":52.354439}}
{"_id":1525798,"name":"Balqash","country":"KZ","coord":{"lon":74.995003,"lat":46.848061}}
{"_id":1520316,"name":"Ust-Kamenogorsk","country":"KZ","coord":{"lon":82.610283,"lat":49.978889}}
{"_id":1526482,"name":"Alatau","country":"KZ","coord":{"lon":77.14444,"lat":43.357498}}
{"_id":1517671,"name":"Usharal","country":"KZ","coord":{"lon":76.849998,"lat":44.23333}}
{"_id":1517945,"name":"Turkestan","country":"KZ","coord":{"lon":68.25,"lat":43.333328}}
{"_id":1519928,"name":"Qostanay","country":"KZ","coord":{"lon":63.583328,"lat":53.166672}}
{"_id":608613,"name":"Petrovo","country":"KZ","coord":{"lon":52.24194,"lat":51.542221}}
{"_id":608879,"name":"Mangistauskaya Oblast’","country":"KZ","coord":{"lon":54,"lat":44}}
{"_id":607610,"name":"Zhanaozen","country":"KZ","coord":{"lon":52.799999,"lat":43.299999}}
{"_id":1520692,"name":"Sätbaev","country":"KZ","coord":{"lon":67.543327,"lat":47.904171}}
{"_id":610611,"name":"Aqtobe","country":"KZ","coord":{"lon":57.20718,"lat":50.27969}}
{"_id":1519844,"name":"Rūdnīchnyy","country":"KZ","coord":{"lon":78.904716,"lat":44.67194}}
{"_id":607517,"name":"Zhuldyz","country":"KZ","coord":{"lon":49.48167,"lat":49.274719}}
{"_id":1516789,"name":"Ayteke Bi","country":"KZ","coord":{"lon":62.156109,"lat":45.853611}}
{"_id":1518296,"name":"Tekeli","country":"KZ","coord":{"lon":78.823891,"lat":44.830002}}
{"_id":610655,"name":"Alimbek","country":"KZ","coord":{"lon":49.973061,"lat":49.687778}}
{"_id":1522751,"name":"Kentau","country":"KZ","coord":{"lon":68.509399,"lat":43.520611}}
{"_id":608422,"name":"Saule","country":"KZ","coord":{"lon":53.195831,"lat":49.380829}}
{"_id":1526038,"name":"Atbasar","country":"KZ","coord":{"lon":68.333328,"lat":51.799999}}
{"_id":1519938,"name":"Karatau","country":"KZ","coord":{"lon":70.466667,"lat":43.166672}}
{"_id":1526547,"name":"Aqzhal","country":"KZ","coord":{"lon":74.034721,"lat":47.764439}}
{"_id":1520536,"name":"Novotroitskoye","country":"KZ","coord":{"lon":73.758331,"lat":43.683331}}
{"_id":1517047,"name":"Zerenda","country":"KZ","coord":{"lon":69.152779,"lat":52.90556}}
{"_id":609906,"name":"Fort-Shevchenko","country":"KZ","coord":{"lon":50.262959,"lat":44.508629}}
{"_id":1524801,"name":"Shieli","country":"KZ","coord":{"lon":66.75,"lat":44.166672}}
{"_id":1524478,"name":"Dzhalagash","country":"KZ","coord":{"lon":64.666672,"lat":45.083328}}
{"_id":610686,"name":"Aqzhayyq","country":"KZ","coord":{"lon":51.583328,"lat":50.666672}}
{"_id":1523741,"name":"Esik","country":"KZ","coord":{"lon":77.452454,"lat":43.355202}}
{"_id":1518156,"name":"Temir","country":"KZ","coord":{"lon":68.432503,"lat":42.82}}
{"_id":609919,"name":"Kuryk","country":"KZ","coord":{"lon":51.650002,"lat":43.200001}}
{"_id":1534162,"name":"Altay","country":"KZ","coord":{"lon":84.609169,"lat":48.83083}}
{"_id":1521757,"name":"Kurday","country":"KZ","coord":{"lon":75.01194,"lat":43.613609}}
{"_id":1516726,"name":"Zharkyn","country":"KZ","coord":{"lon":72.375,"lat":54.138889}}
{"_id":609509,"name":"Kartashëv","country":"KZ","coord":{"lon":48.933331,"lat":50.5}}
{"_id":1540859,"name":"Otegen Batyr","country":"KZ","coord":{"lon":77.050003,"lat":43.333328}}
{"_id":8062231,"name":"Ashi","country":"KZ","coord":{"lon":69.921982,"lat":42.205929}}
{"_id":1524296,"name":"Esil","country":"KZ","coord":{"lon":66.404167,"lat":51.955559}}
{"_id":1519051,"name":"Shortandy","country":"KZ","coord":{"lon":72.497223,"lat":50.78833}}
{"_id":608915,"name":"Makhambet","country":"KZ","coord":{"lon":51.583328,"lat":47.666672}}
{"_id":1539940,"name":"Daulet","country":"KZ","coord":{"lon":77.102501,"lat":43.619171}}
{"_id":1521230,"name":"Makinsk","country":"KZ","coord":{"lon":70.416939,"lat":52.629169}}
{"_id":1524230,"name":"Aqbastaū","country":"KZ","coord":{"lon":69.669441,"lat":42.90361}}
{"_id":1524302,"name":"Yereymentau","country":"KZ","coord":{"lon":73.106941,"lat":51.621391}}
{"_id":1517637,"name":"Ush-Tyube","country":"KZ","coord":{"lon":77.982224,"lat":45.242222}}
{"_id":1520327,"name":"Osakarovka","country":"KZ","coord":{"lon":72.569168,"lat":50.564999}}
{"_id":607843,"name":"Orda","country":"KZ","coord":{"lon":47.428329,"lat":48.769718}}
{"_id":610298,"name":"Beyneu","country":"KZ","coord":{"lon":55.200001,"lat":45.316669}}
{"_id":1519673,"name":"Saryaghash","country":"KZ","coord":{"lon":69.166672,"lat":41.450001}}
{"_id":1519580,"name":"Saryozek","country":"KZ","coord":{"lon":77.975281,"lat":44.35833}}
{"_id":608324,"name":"Shetpe","country":"KZ","coord":{"lon":52.116669,"lat":44.166672}}
{"_id":610242,"name":"Baldyrgan","country":"KZ","coord":{"lon":49.259171,"lat":49.154999}}
{"_id":1518543,"name":"Taldyqorghan","country":"KZ","coord":{"lon":77.916672,"lat":45}}
{"_id":1526193,"name":"Arkalyk","country":"KZ","coord":{"lon":66.911392,"lat":50.248611}}
{"_id":1520969,"name":"Merke","country":"KZ","coord":{"lon":73.178612,"lat":42.87278}}
{"_id":1539952,"name":"Zhanaarka","country":"KZ","coord":{"lon":77.022217,"lat":43.613331}}
{"_id":1524606,"name":"Derzhavinsk","country":"KZ","coord":{"lon":66.316673,"lat":51.099998}}
{"_id":1519327,"name":"Shakhtīnsk","country":"KZ","coord":{"lon":72.587219,"lat":49.709999}}
{"_id":1520253,"name":"Zharkent","country":"KZ","coord":{"lon":80,"lat":44.162781}}
{"_id":1519226,"name":"Shemonaikha","country":"KZ","coord":{"lon":81.905563,"lat":50.632778}}
{"_id":1538316,"name":"Bayqongyr Qalasy","country":"KZ","coord":{"lon":63.333328,"lat":45.666672}}
{"_id":1521368,"name":"Baykonyr","country":"KZ","coord":{"lon":63.316669,"lat":45.616669}}
{"_id":1522061,"name":"Kenes","country":"KZ","coord":{"lon":75.559441,"lat":53.23333}}
{"_id":1518139,"name":"Tobol","country":"KZ","coord":{"lon":62.579441,"lat":52.684441}}
{"_id":1525014,"name":"Bulaevo","country":"KZ","coord":{"lon":70.443893,"lat":54.90556}}
{"_id":1521422,"name":"Kyzylzhar","country":"KZ","coord":{"lon":76.683327,"lat":52.450001}}
{"_id":1525624,"name":"Saūdakent","country":"KZ","coord":{"lon":69.918892,"lat":43.737782}}
{"_id":1519934,"name":"Qarqaraly","country":"KZ","coord":{"lon":75.474167,"lat":49.40583}}
{"_id":1520561,"name":"Kasymbek","country":"KZ","coord":{"lon":76.431938,"lat":43.25111}}
{"_id":1525490,"name":"Belusovka","country":"KZ","coord":{"lon":82.523888,"lat":50.133888}}
{"_id":1519843,"name":"Rudnyy","country":"KZ","coord":{"lon":63.12056,"lat":52.959438}}
{"_id":1519386,"name":"Sergeyevka","country":"KZ","coord":{"lon":63.18861,"lat":52.955002}}
{"_id":1522642,"name":"Balpyk Bi","country":"KZ","coord":{"lon":78.208328,"lat":44.894718}}
{"_id":1516854,"name":"Zhanama","country":"KZ","coord":{"lon":80.76667,"lat":46.200001}}
{"_id":1517136,"name":"Yrghyz","country":"KZ","coord":{"lon":61.26667,"lat":48.616669}}
{"_id":1519924,"name":"Qusmuryn","country":"KZ","coord":{"lon":64.631111,"lat":52.450279}}
{"_id":1525650,"name":"Bayanauyl","country":"KZ","coord":{"lon":75.695557,"lat":50.788891}}
{"_id":1524227,"name":"Glubokoye","country":"KZ","coord":{"lon":82.311394,"lat":50.145561}}
{"_id":1516968,"name":"Zhalpaktobe","country":"KZ","coord":{"lon":71.433327,"lat":42.866669}}
{"_id":1522605,"name":"Kievka","country":"KZ","coord":{"lon":71.551392,"lat":50.26194}}
{"_id":1518266,"name":"Temirlanovka","country":"KZ","coord":{"lon":69.263329,"lat":42.599442}}
{"_id":1518980,"name":"Shymkent","country":"KZ","coord":{"lon":69.599998,"lat":42.299999}}
{"_id":1535595,"name":"Enbekbirlik","country":"KZ","coord":{"lon":69.35556,"lat":53.054169}}
{"_id":609953,"name":"Zhanibek","country":"KZ","coord":{"lon":46.849998,"lat":49.416672}}
{"_id":1517539,"name":"Uzynagash","country":"KZ","coord":{"lon":64.301666,"lat":54.324169}}
{"_id":1519935,"name":"Qarazhal","country":"KZ","coord":{"lon":70.790283,"lat":48.007778}}
{"_id":608629,"name":"Peremetnoe","country":"KZ","coord":{"lon":50.816669,"lat":51.183331}}
{"_id":1516788,"name":"Zhangatas","country":"KZ","coord":{"lon":69.75,"lat":43.566669}}
{"_id":1521192,"name":"Malinovka","country":"KZ","coord":{"lon":78.23333,"lat":52.416672}}
{"_id":1517743,"name":"Ulytaū","country":"KZ","coord":{"lon":67.002777,"lat":48.654442}}
{"_id":1526619,"name":"Aqtas","country":"KZ","coord":{"lon":72.960831,"lat":49.778889}}
{"_id":1517869,"name":"Tömenaryq","country":"KZ","coord":{"lon":67.016937,"lat":44.03056}}
{"_id":1526055,"name":"Asubulaq","country":"KZ","coord":{"lon":83.055832,"lat":49.558331}}
{"_id":610260,"name":"Bogdanovka","country":"KZ","coord":{"lon":52.136108,"lat":51.064442}}
{"_id":608932,"name":"Lubenka","country":"KZ","coord":{"lon":54.124722,"lat":50.441669}}
{"_id":610622,"name":"Angqaty","country":"KZ","coord":{"lon":51.547218,"lat":50.736111}}
{"_id":856938,"name":"Aksuat","country":"KZ","coord":{"lon":48.94278,"lat":49.605831}}
{"_id":1525771,"name":"Bannovka","country":"KZ","coord":{"lon":62.953892,"lat":53.726109}}
{"_id":1520178,"name":"Peshkovka","country":"KZ","coord":{"lon":62.40361,"lat":53.728329}}
{"_id":1520747,"name":"Narynkol","country":"KZ","coord":{"lon":80.178329,"lat":42.72583}}
{"_id":1524849,"name":"Cheremshanka","country":"KZ","coord":{"lon":83.933327,"lat":49.383331}}
{"_id":609707,"name":"Qamysty","country":"KZ","coord":{"lon":47.183331,"lat":49.816669}}
{"_id":1524889,"name":"Shardara","country":"KZ","coord":{"lon":67.96917,"lat":41.254719}}
{"_id":1525465,"name":"Belterek","country":"KZ","coord":{"lon":80.73056,"lat":49.22583}}
{"_id":1520859,"name":"Moskovka","country":"KZ","coord":{"lon":69.711388,"lat":53.73806}}
{"_id":1525617,"name":"Baykoshkar","country":"KZ","coord":{"lon":78.754723,"lat":48.396671}}
{"_id":1520061,"name":"Predgornoe","country":"KZ","coord":{"lon":82.225563,"lat":50.244438}}
{"_id":1536935,"name":"Chinar","country":"KZ","coord":{"lon":69.798889,"lat":41.835831}}
{"_id":1526610,"name":"Aqtasty","country":"KZ","coord":{"lon":72.205833,"lat":50.74778}}
{"_id":1519633,"name":"Sarybulakskiy","country":"KZ","coord":{"lon":77.650002,"lat":44.400002}}
{"_id":610189,"name":"Bulak","country":"KZ","coord":{"lon":50.216671,"lat":50.183331}}
{"_id":1520386,"name":"Orakbalga","country":"KZ","coord":{"lon":74.566673,"lat":45.400002}}
{"_id":1516527,"name":"Zholymbet","country":"KZ","coord":{"lon":71.712219,"lat":51.743328}}
{"_id":1523768,"name":"Ertis","country":"KZ","coord":{"lon":75.457222,"lat":53.333328}}
{"_id":1516634,"name":"Zhelezinka","country":"KZ","coord":{"lon":75.30722,"lat":53.540001}}
{"_id":1520897,"name":"Moinkum","country":"KZ","coord":{"lon":74.333893,"lat":43.598331}}
{"_id":609915,"name":"Fedorovka","country":"KZ","coord":{"lon":51.98333,"lat":51.200001}}
{"_id":1526041,"name":"Atasu","country":"KZ","coord":{"lon":71.643333,"lat":48.681389}}
{"_id":1523998,"name":"Imeni Karla Marksa","country":"KZ","coord":{"lon":65.616669,"lat":54.333328}}
{"_id":610091,"name":"Chingirlau","country":"KZ","coord":{"lon":54.08139,"lat":51.095001}}
{"_id":608271,"name":"Shubarkuduk","country":"KZ","coord":{"lon":56.487221,"lat":49.144718}}
{"_id":1521079,"name":"Matay","country":"KZ","coord":{"lon":78.718063,"lat":45.895}}
{"_id":1526325,"name":"Amanqaraghay","country":"KZ","coord":{"lon":64.091942,"lat":52.402779}}
{"_id":609454,"name":"Kaztalovka","country":"KZ","coord":{"lon":48.695,"lat":49.7575}}
{"_id":1520601,"name":"Novokubanka","country":"KZ","coord":{"lon":70.730827,"lat":51.672218}}
{"_id":1517836,"name":"Üsharal","country":"KZ","coord":{"lon":80.939438,"lat":46.16972}}
{"_id":1524243,"name":"Georgiyevka","country":"KZ","coord":{"lon":74.711388,"lat":43.036942}}
{"_id":1539930,"name":"Bayserke","country":"KZ","coord":{"lon":77.046669,"lat":43.48056}}
{"_id":1516828,"name":"Zhanatan","country":"KZ","coord":{"lon":77.616669,"lat":51.533329}}
{"_id":609348,"name":"Kökterek","country":"KZ","coord":{"lon":49.235001,"lat":49.396938}}
{"_id":1522545,"name":"Kokaral","country":"KZ","coord":{"lon":60.73333,"lat":46.25}}
{"_id":1518071,"name":"Topar","country":"KZ","coord":{"lon":72.818329,"lat":49.508331}}
{"_id":1518511,"name":"Talshyq","country":"KZ","coord":{"lon":71.87722,"lat":53.637218}}
{"_id":1520051,"name":"Presnovka","country":"KZ","coord":{"lon":67.150002,"lat":54.666672}}
{"_id":1523843,"name":"Timiryazevo","country":"KZ","coord":{"lon":76.97583,"lat":53.07111}}
{"_id":1526229,"name":"Arasan","country":"KZ","coord":{"lon":79.355003,"lat":45.278061}}
{"_id":1524871,"name":"Shayan","country":"KZ","coord":{"lon":69.37722,"lat":43.02972}}
{"_id":1518881,"name":"Sharbulak","country":"KZ","coord":{"lon":69.48333,"lat":41.76667}}
{"_id":1519293,"name":"Chemolgan","country":"KZ","coord":{"lon":76.529167,"lat":43.18972}}
{"_id":1519516,"name":"Sastobe","country":"KZ","coord":{"lon":70,"lat":42.549999}}
{"_id":1521351,"name":"Qazyqurt","country":"KZ","coord":{"lon":69.386391,"lat":41.758888}}
{"_id":1525988,"name":"Ayagoz","country":"KZ","coord":{"lon":80.439171,"lat":47.97139}}
{"_id":1521762,"name":"Kurchum","country":"KZ","coord":{"lon":83.654167,"lat":48.57222}}
{"_id":1519691,"name":"Sarkand","country":"KZ","coord":{"lon":79.91861,"lat":45.41}}
{"_id":1526169,"name":"Arys","country":"KZ","coord":{"lon":68.400002,"lat":42.76667}}
{"_id":1519439,"name":"Sekisovka","country":"KZ","coord":{"lon":82.583328,"lat":50.333328}}
{"_id":609977,"name":"Dzhambeyty","country":"KZ","coord":{"lon":52.595001,"lat":50.253609}}
{"_id":1523400,"name":"Qaraghandy","country":"KZ","coord":{"lon":71.051392,"lat":54.666672}}
{"_id":1518936,"name":"Smirnovo","country":"KZ","coord":{"lon":69.422218,"lat":54.512501}}
{"_id":1522035,"name":"Taiynsha","country":"KZ","coord":{"lon":69.763893,"lat":53.847778}}
{"_id":1519273,"name":"Sharapkhana","country":"KZ","coord":{"lon":69.434441,"lat":41.875832}}
{"_id":1521835,"name":"Qumkent","country":"KZ","coord":{"lon":69.616386,"lat":43.775002}}
{"_id":1525850,"name":"Bakanas","country":"KZ","coord":{"lon":76.277222,"lat":44.80806}}
{"_id":1522818,"name":"Kegen","country":"KZ","coord":{"lon":79.220284,"lat":43.019718}}
{"_id":1520879,"name":"Molodezhnoe","country":"KZ","coord":{"lon":69.885002,"lat":53.228329}}
{"_id":1524696,"name":"Chundzha","country":"KZ","coord":{"lon":79.470284,"lat":43.541672}}
{"_id":1520599,"name":"Novomarkovka","country":"KZ","coord":{"lon":72.301666,"lat":51.71722}}
{"_id":1522955,"name":"Kaskabulak","country":"KZ","coord":{"lon":70.349998,"lat":43.116669}}
{"_id":1539946,"name":"Zhetygen","country":"KZ","coord":{"lon":77.128059,"lat":43.691391}}
{"_id":1523014,"name":"Kargaly","country":"KZ","coord":{"lon":80.48333,"lat":45.616669}}
{"_id":608739,"name":"Bestau","country":"KZ","coord":{"lon":53.053059,"lat":51.271671}}
{"_id":608778,"name":"Munayshy","country":"KZ","coord":{"lon":52.108608,"lat":43.491112}}
{"_id":1517310,"name":"Yasnaya Polyana","country":"KZ","coord":{"lon":70.283333,"lat":53.950001}}
{"_id":1517443,"name":"Vīshnevka","country":"KZ","coord":{"lon":72.178329,"lat":50.83778}}
{"_id":610612,"name":"Aktau","country":"KZ","coord":{"lon":51.200001,"lat":43.650002}}
{"_id":609440,"name":"Kenkiyak","country":"KZ","coord":{"lon":57.121941,"lat":48.603329}}
{"_id":1519167,"name":"Shilikti","country":"KZ","coord":{"lon":74.646942,"lat":52.870831}}
{"_id":1523232,"name":"Karaozek","country":"KZ","coord":{"lon":70.349998,"lat":52.633331}}
{"_id":1522809,"name":"Kellerovka","country":"KZ","coord":{"lon":69.292221,"lat":53.83889}}
{"_id":1519455,"name":"Sayram","country":"KZ","coord":{"lon":69.770279,"lat":42.301941}}
{"_id":1524809,"name":"Chervonnoye","country":"KZ","coord":{"lon":66.723061,"lat":53.2775}}
{"_id":1522565,"name":"Köbensay","country":"KZ","coord":{"lon":72.777779,"lat":53.74667}}
{"_id":1518679,"name":"Sozaq","country":"KZ","coord":{"lon":68.472221,"lat":44.14222}}
{"_id":1519849,"name":"Rozovka","country":"KZ","coord":{"lon":77.433327,"lat":52.599998}}
{"_id":1521374,"name":"Lenīngradskoe","country":"KZ","coord":{"lon":71.550003,"lat":53.534721}}
{"_id":1518945,"name":"Myrzakent","country":"KZ","coord":{"lon":68.533333,"lat":40.666672}}
{"_id":1516595,"name":"Zhetysay","country":"KZ","coord":{"lon":68.300003,"lat":40.73333}}
{"_id":1520627,"name":"Novodolinskiy","country":"KZ","coord":{"lon":72.70472,"lat":49.705002}}
{"_id":1521330,"name":"Lepsi","country":"KZ","coord":{"lon":80.608612,"lat":45.52417}}
{"_id":1521038,"name":"Maykol’","country":"KZ","coord":{"lon":63.33667,"lat":53.278061}}
{"_id":1519380,"name":"Seslavino","country":"KZ","coord":{"lon":70.199997,"lat":42.450001}}
{"_id":1525376,"name":"Bestobe","country":"KZ","coord":{"lon":73.097504,"lat":52.499439}}
{"_id":1526460,"name":"Aleksandrovka","country":"KZ","coord":{"lon":69.853333,"lat":53.103062}}
{"_id":1537911,"name":"Almas","country":"KZ","coord":{"lon":69.799171,"lat":50.363892}}
{"_id":608566,"name":"Pugachëvo","country":"KZ","coord":{"lon":52.9025,"lat":51.203609}}
{"_id":610416,"name":"Batamshinskiy","country":"KZ","coord":{"lon":58.274719,"lat":50.559441}}
{"_id":1519725,"name":"Sorang","country":"KZ","coord":{"lon":72.850563,"lat":49.779999}}
{"_id":608575,"name":"Prirechnoye","country":"KZ","coord":{"lon":52.42083,"lat":51.064171}}
{"_id":1519275,"name":"Shar","country":"KZ","coord":{"lon":81.04528,"lat":49.588612}}
{"_id":1523563,"name":"Kamkaly","country":"KZ","coord":{"lon":70.160828,"lat":44.84639}}
{"_id":610100,"name":"Chesnokovo","country":"KZ","coord":{"lon":52.17556,"lat":51.655281}}
{"_id":1517563,"name":"Uzunagach","country":"KZ","coord":{"lon":76.308609,"lat":43.221668}}
{"_id":1517733,"name":"Ungurtas","country":"KZ","coord":{"lon":76.024719,"lat":43.274441}}
{"_id":1518304,"name":"Tegiszhol","country":"KZ","coord":{"lon":72.75,"lat":50.083328}}
{"_id":1521180,"name":"Malovodnoye","country":"KZ","coord":{"lon":77.696938,"lat":43.51083}}
{"_id":607681,"name":"Zhagabulak","country":"KZ","coord":{"lon":57.56028,"lat":48.548061}}
{"_id":1522862,"name":"Qazaly","country":"KZ","coord":{"lon":62.107498,"lat":45.762779}}
{"_id":1537980,"name":"Ulken","country":"KZ","coord":{"lon":73.978607,"lat":45.211941}}
{"_id":610743,"name":"Aqqystaū","country":"KZ","coord":{"lon":51,"lat":47.23333}}
{"_id":1525736,"name":"Barshatas","country":"KZ","coord":{"lon":78.661392,"lat":48.16972}}
{"_id":1521216,"name":"Maksut","country":"KZ","coord":{"lon":62.997501,"lat":52.158329}}
{"_id":1538000,"name":"Kökzhīde","country":"KZ","coord":{"lon":78.818062,"lat":46.228329}}
{"_id":1518333,"name":"Tavricheskoye","country":"KZ","coord":{"lon":82.056671,"lat":50.173611}}
{"_id":1525462,"name":"Aksu","country":"KZ","coord":{"lon":69.833328,"lat":42.416672}}
{"_id":1519809,"name":"Sadchikovka","country":"KZ","coord":{"lon":63.453892,"lat":53.010559}}
{"_id":1518542,"name":"Taldyqorghan","country":"KZ","coord":{"lon":78.373894,"lat":45.01556}}
{"_id":608506,"name":"Sambay","country":"KZ","coord":{"lon":57.20694,"lat":49.986671}}
{"_id":610530,"name":"Atrau","country":"KZ","coord":{"lon":52.700001,"lat":46.98333}}
{"_id":1533289,"name":"Zhanakurlys","country":"KZ","coord":{"lon":77.130562,"lat":53.551392}}
{"_id":609447,"name":"Kemer","country":"KZ","coord":{"lon":53.799999,"lat":49.816669}}
{"_id":610768,"name":"Akkemer","country":"KZ","coord":{"lon":57.34,"lat":49.657501}}
{"_id":1525876,"name":"Babatay","country":"KZ","coord":{"lon":71.933327,"lat":50.966671}}
{"_id":1525846,"name":"Baqbaqty","country":"KZ","coord":{"lon":76.659172,"lat":44.570831}}
{"_id":856947,"name":"Bostandyk","country":"KZ","coord":{"lon":49.691391,"lat":49.439999}}
{"_id":1532612,"name":"Naydorf","country":"KZ","coord":{"lon":72.26667,"lat":54.299999}}
{"_id":1516673,"name":"Zhasyl","country":"KZ","coord":{"lon":70.283333,"lat":52.799999}}
{"_id":1522684,"name":"Qorghas","country":"KZ","coord":{"lon":80.38028,"lat":44.224998}}
{"_id":1516593,"name":"Zhezdi","country":"KZ","coord":{"lon":67.053886,"lat":48.064442}}
{"_id":1521677,"name":"Qushoqy","country":"KZ","coord":{"lon":73.402496,"lat":50.233891}}
{"_id":8012502,"name":"Socorro","country":"PT","coord":{"lon":-9.13327,"lat":38.716942}}
{"_id":8010582,"name":"Maia","country":"PT","coord":{"lon":-8.60257,"lat":41.242538}}
{"_id":8012755,"name":"Vermoim","country":"PT","coord":{"lon":-8.60832,"lat":41.237949}}
{"_id":2738014,"name":"Maia","country":"PT","coord":{"lon":-8.6199,"lat":41.235741}}
{"_id":8012542,"name":"Linda-A-Velha","country":"PT","coord":{"lon":-9.2394,"lat":38.711361}}
{"_id":2267067,"name":"Linda-a-Velha","country":"PT","coord":{"lon":-9.2422,"lat":38.714458}}
{"_id":6458924,"name":"Porto","country":"PT","coord":{"lon":-8.62672,"lat":41.15556}}
{"_id":2740952,"name":"Cavaco","country":"PT","coord":{"lon":-8.61667,"lat":41.150002}}
{"_id":8010569,"name":"Amadora","country":"PT","coord":{"lon":-9.22342,"lat":38.755711}}
{"_id":8012589,"name":"Reboleira","country":"PT","coord":{"lon":-9.22868,"lat":38.751259}}
{"_id":2271772,"name":"Amadora","country":"PT","coord":{"lon":-9.23083,"lat":38.753819}}
{"_id":8010570,"name":"Odivelas","country":"PT","coord":{"lon":-9.19108,"lat":38.79705}}
{"_id":2264526,"name":"Pontinha","country":"PT","coord":{"lon":-9.19935,"lat":38.767712}}
{"_id":8010448,"name":"Braga","country":"PT","coord":{"lon":-8.43231,"lat":41.537788}}
{"_id":8011057,"name":"Braga (Maximinos)","country":"PT","coord":{"lon":-8.43921,"lat":41.545368}}
{"_id":2733872,"name":"Soito Chão","country":"PT","coord":{"lon":-8.43816,"lat":41.54665}}
{"_id":8010483,"name":"Coimbra","country":"PT","coord":{"lon":-8.45369,"lat":40.218159}}
{"_id":8011803,"name":"Santo António Dos Olivais","country":"PT","coord":{"lon":-8.40099,"lat":40.208221}}
{"_id":2742689,"name":"Arregaça","country":"PT","coord":{"lon":-8.41945,"lat":40.196129}}
{"_id":8010502,"name":"Évora","country":"PT","coord":{"lon":-7.8946,"lat":38.566502}}
{"_id":8014889,"name":"Senhora da Saúde","country":"PT","coord":{"lon":-7.85557,"lat":38.61211}}
{"_id":2268406,"name":"Evora","country":"PT","coord":{"lon":-7.9,"lat":38.566669}}
{"_id":3372880,"name":"Matriz","country":"PT","coord":{"lon":-28.633329,"lat":38.533329}}
{"_id":8010567,"name":"Torres Vedras","country":"PT","coord":{"lon":-9.25238,"lat":39.102219}}
{"_id":8014187,"name":"Torres Vedras (São Pedro e São Tiago)","country":"PT","coord":{"lon":-9.2583,"lat":39.089989}}
{"_id":2265441,"name":"Olheiros","country":"PT","coord":{"lon":-9.27225,"lat":39.105808}}
{"_id":8012366,"name":"Leiria","country":"PT","coord":{"lon":-8.80789,"lat":39.737289}}
{"_id":2267095,"name":"Leiria","country":"PT","coord":{"lon":-8.80705,"lat":39.743622}}
{"_id":2572270,"name":"Albatroz","country":"PT","coord":{"lon":-9.41667,"lat":38.700001}}
{"_id":8010578,"name":"Baião","country":"PT","coord":{"lon":-8.03581,"lat":41.163841}}
{"_id":8012678,"name":"Valadares","country":"PT","coord":{"lon":-7.98561,"lat":41.146339}}
{"_id":2738980,"name":"Godinho","country":"PT","coord":{"lon":-7.98362,"lat":41.149071}}
{"_id":8012556,"name":"Agualva","country":"PT","coord":{"lon":-9.29286,"lat":38.771221}}
{"_id":2270503,"name":"Cacem","country":"PT","coord":{"lon":-9.29793,"lat":38.766979}}
{"_id":8010750,"name":"Glória","country":"PT","coord":{"lon":-8.65886,"lat":40.635201}}
{"_id":2734315,"name":"São Tiago","country":"PT","coord":{"lon":-8.65922,"lat":40.629768}}
{"_id":8012504,"name":"Bucelas","country":"PT","coord":{"lon":-9.12692,"lat":38.909359}}
{"_id":2270649,"name":"Bucelas","country":"PT","coord":{"lon":-9.11885,"lat":38.901932}}
{"_id":8010516,"name":"Faro","country":"PT","coord":{"lon":-7.92774,"lat":37.056431}}
{"_id":8011989,"name":"Faro (Sé)","country":"PT","coord":{"lon":-7.88805,"lat":37.003551}}
{"_id":2268339,"name":"Faro","country":"PT","coord":{"lon":-7.93223,"lat":37.019371}}
{"_id":8012010,"name":"Loulé (São Sebastião)","country":"PT","coord":{"lon":-8.06768,"lat":37.1455}}
{"_id":2264737,"name":"Piedade","country":"PT","coord":{"lon":-8.04122,"lat":37.141109}}
{"_id":8014777,"name":"Sintra (São Pedro de Penaferrim)","country":"PT","coord":{"lon":-9.38963,"lat":38.76947}}
{"_id":2266464,"name":"Mem Martins","country":"PT","coord":{"lon":-9.35,"lat":38.783329}}
{"_id":8014628,"name":"Sintra (Santa Maria e São Miguel)","country":"PT","coord":{"lon":-9.36932,"lat":38.810349}}
{"_id":2265829,"name":"Monte Santos","country":"PT","coord":{"lon":-9.38333,"lat":38.799999}}
{"_id":8012481,"name":"Prazeres","country":"PT","coord":{"lon":-9.16819,"lat":38.706848}}
{"_id":2270338,"name":"Campolide","country":"PT","coord":{"lon":-9.16486,"lat":38.729462}}
{"_id":2272187,"name":"Alcântara","country":"PT","coord":{"lon":-9.17145,"lat":38.701019}}
{"_id":8010591,"name":"Vila do Conde","country":"PT","coord":{"lon":-8.68288,"lat":41.332909}}
{"_id":8014092,"name":"Vila do Conde","country":"PT","coord":{"lon":-8.74587,"lat":41.35527}}
{"_id":2732649,"name":"Vila do Conde","country":"PT","coord":{"lon":-8.7434,"lat":41.354809}}
{"_id":8010561,"name":"Cascais","country":"PT","coord":{"lon":-9.46382,"lat":38.743328}}
{"_id":8012459,"name":"Parede","country":"PT","coord":{"lon":-9.35695,"lat":38.693279}}
{"_id":2265169,"name":"Parede","country":"PT","coord":{"lon":-9.35412,"lat":38.692822}}
{"_id":8012510,"name":"Sacavém","country":"PT","coord":{"lon":-9.10533,"lat":38.794418}}
{"_id":2270986,"name":"Beirolas","country":"PT","coord":{"lon":-9.1,"lat":38.783329}}
{"_id":2732264,"name":"Distrito de Viseu","country":"PT","coord":{"lon":-7.83333,"lat":40.75}}
{"_id":8010671,"name":"Viseu","country":"PT","coord":{"lon":-7.91721,"lat":40.6745}}
{"_id":8014005,"name":"Viseu (São José)","country":"PT","coord":{"lon":-7.90742,"lat":40.66787}}
{"_id":2732265,"name":"Viseu","country":"PT","coord":{"lon":-7.90971,"lat":40.661011}}
{"_id":8011398,"name":"Vizela (São Paio)","country":"PT","coord":{"lon":-8.25831,"lat":41.386921}}
{"_id":2732240,"name":"Vizela","country":"PT","coord":{"lon":-8.26389,"lat":41.390961}}
{"_id":8010617,"name":"Almada","country":"PT","coord":{"lon":-9.14955,"lat":38.68399}}
{"_id":8013114,"name":"Caparica","country":"PT","coord":{"lon":-9.20464,"lat":38.653721}}
{"_id":2265629,"name":"Murrião","country":"PT","coord":{"lon":-9.2,"lat":38.666672}}
{"_id":2264299,"name":"Quarteira","country":"PT","coord":{"lon":-8.10064,"lat":37.069462}}
{"_id":8010635,"name":"Viana do Castelo","country":"PT","coord":{"lon":-8.84674,"lat":41.708981}}
{"_id":8014829,"name":"Viana do Castelo (Monserrate)","country":"PT","coord":{"lon":-8.83916,"lat":41.687592}}
{"_id":2733289,"name":"Ursulinas","country":"PT","coord":{"lon":-8.8315,"lat":41.693909}}
{"_id":8010422,"name":"Ílhavo","country":"PT","coord":{"lon":-8.72,"lat":40.611698}}
{"_id":8014367,"name":"Gafanha da Nazaré","country":"PT","coord":{"lon":-8.72068,"lat":40.641701}}
{"_id":2737902,"name":"Marinha Velha","country":"PT","coord":{"lon":-8.71791,"lat":40.632278}}
{"_id":8010832,"name":"Maceda","country":"PT","coord":{"lon":-8.63074,"lat":40.920681}}
{"_id":2738087,"name":"Maceda","country":"PT","coord":{"lon":-8.61721,"lat":40.936371}}
{"_id":8012540,"name":"Algés","country":"PT","coord":{"lon":-9.22951,"lat":38.705299}}
{"_id":2271985,"name":"Alges","country":"PT","coord":{"lon":-9.22936,"lat":38.70245}}
{"_id":8014559,"name":"Setúbal (Santa Maria da Graça)","country":"PT","coord":{"lon":-8.88214,"lat":38.532902}}
{"_id":2262963,"name":"Setubal","country":"PT","coord":{"lon":-8.8882,"lat":38.524399}}
{"_id":6930332,"name":"Loures","country":"PT","coord":{"lon":-9.19565,"lat":38.84412}}
{"_id":2266977,"name":"Loures","country":"PT","coord":{"lon":-9.16845,"lat":38.83091}}
{"_id":2739788,"name":"Fafe","country":"PT","coord":{"lon":-8.168,"lat":41.454231}}
{"_id":8010584,"name":"Matosinhos","country":"PT","coord":{"lon":-8.66743,"lat":41.207661}}
{"_id":8014124,"name":"Senhora da Hora","country":"PT","coord":{"lon":-8.65066,"lat":41.18647}}
{"_id":2734140,"name":"Senhora da Hora","country":"PT","coord":{"lon":-8.65172,"lat":41.186401}}
{"_id":2732437,"name":"Distrito de Vila Real","country":"PT","coord":{"lon":-7.58333,"lat":41.583328}}
{"_id":8010650,"name":"Vila Real","country":"PT","coord":{"lon":-7.73985,"lat":41.300209}}
{"_id":8013720,"name":"Folhadela","country":"PT","coord":{"lon":-7.72726,"lat":41.265671}}
{"_id":2735979,"name":"Portela","country":"PT","coord":{"lon":-7.7074,"lat":41.267391}}
{"_id":8010627,"name":"Arcos de Valdevez","country":"PT","coord":{"lon":-8.42624,"lat":41.873482}}
{"_id":8013180,"name":"Gondoriz","country":"PT","coord":{"lon":-8.36274,"lat":41.90461}}
{"_id":2736125,"name":"Pogido","country":"PT","coord":{"lon":-8.42678,"lat":41.883141}}
{"_id":8010637,"name":"Alijó","country":"PT","coord":{"lon":-7.48545,"lat":41.28447}}
{"_id":8013543,"name":"Cotas","country":"PT","coord":{"lon":-7.4919,"lat":41.223541}}
{"_id":2735845,"name":"Póvoa","country":"PT","coord":{"lon":-7.49928,"lat":41.22266}}
{"_id":8012505,"name":"Camarate","country":"PT","coord":{"lon":-9.13394,"lat":38.798031}}
{"_id":2270377,"name":"Camarate","country":"PT","coord":{"lon":-9.12808,"lat":38.803581}}
{"_id":2735083,"name":"Rio Tinto","country":"PT","coord":{"lon":-8.55811,"lat":41.18259}}
{"_id":8010415,"name":"Anadia","country":"PT","coord":{"lon":-8.46246,"lat":40.451061}}
{"_id":8010725,"name":"Sangalhos","country":"PT","coord":{"lon":-8.47232,"lat":40.48447}}
{"_id":2734487,"name":"São João da Azenha","country":"PT","coord":{"lon":-8.45429,"lat":40.49667}}
{"_id":8010662,"name":"Resende","country":"PT","coord":{"lon":-7.95123,"lat":41.076881}}
{"_id":8013892,"name":"Resende","country":"PT","coord":{"lon":-7.94738,"lat":41.102009}}
{"_id":2732272,"name":"Vinhós","country":"PT","coord":{"lon":-7.95221,"lat":41.100788}}
{"_id":8012933,"name":"Canidelo","country":"PT","coord":{"lon":-8.65402,"lat":41.127129}}
{"_id":2741551,"name":"Canidelo","country":"PT","coord":{"lon":-8.65104,"lat":41.12402}}
{"_id":8014049,"name":"Vila Nova de Gaia (Santa Marinha)","country":"PT","coord":{"lon":-8.61749,"lat":41.130482}}
{"_id":2742448,"name":"Bandeira","country":"PT","coord":{"lon":-8.61667,"lat":41.133331}}
{"_id":8010653,"name":"Cinfães","country":"PT","coord":{"lon":-8.11218,"lat":41.03986}}
{"_id":8013789,"name":"Souselo","country":"PT","coord":{"lon":-8.23238,"lat":41.063999}}
{"_id":2740399,"name":"Couto","country":"PT","coord":{"lon":-8.24046,"lat":41.065559}}
{"_id":8010421,"name":"Santa Maria da Feira","country":"PT","coord":{"lon":-8.51545,"lat":40.96043}}
{"_id":8010793,"name":"Rio Meão","country":"PT","coord":{"lon":-8.58379,"lat":40.95451}}
{"_id":2735088,"name":"Rio Meao","country":"PT","coord":{"lon":-8.57818,"lat":40.957748}}
{"_id":8010557,"name":"Alenquer","country":"PT","coord":{"lon":-9.051,"lat":39.086739}}
{"_id":8012436,"name":"Carregado","country":"PT","coord":{"lon":-8.9645,"lat":39.023338}}
{"_id":2267472,"name":"Guisanderia","country":"PT","coord":{"lon":-8.98333,"lat":39.01667}}
{"_id":8010622,"name":"Palmela","country":"PT","coord":{"lon":-8.89996,"lat":38.584229}}
{"_id":8014565,"name":"Quinta do Anjo","country":"PT","coord":{"lon":-8.97229,"lat":38.588509}}
{"_id":2271263,"name":"Bacelo","country":"PT","coord":{"lon":-8.93333,"lat":38.566669}}
{"_id":8014405,"name":"Rio de Mouro","country":"PT","coord":{"lon":-9.33273,"lat":38.76889}}
{"_id":2263033,"name":"Serradas","country":"PT","coord":{"lon":-9.33633,"lat":38.76936}}
{"_id":7732032,"name":"Seixal","country":"PT","coord":{"lon":-9.10371,"lat":38.611729}}
{"_id":8014563,"name":"Aldeia de Paio Pires","country":"PT","coord":{"lon":-9.07157,"lat":38.611881}}
{"_id":2272091,"name":"Aldeia de Paio Pires","country":"PT","coord":{"lon":-9.08333,"lat":38.616669}}
{"_id":8012545,"name":"Caxias","country":"PT","coord":{"lon":-9.27276,"lat":38.706558}}
{"_id":2269449,"name":"Caxias","country":"PT","coord":{"lon":-9.27666,"lat":38.70314}}
{"_id":2738782,"name":"Distrito da Guarda","country":"PT","coord":{"lon":-7.16667,"lat":40.666672}}
{"_id":8010533,"name":"Guarda","country":"PT","coord":{"lon":-7.24123,"lat":40.529499}}
{"_id":8012161,"name":"Guarda (Sé)","country":"PT","coord":{"lon":-7.24536,"lat":40.52224}}
{"_id":2738785,"name":"Guarda","country":"PT","coord":{"lon":-7.26575,"lat":40.537331}}
{"_id":2742026,"name":"Distrito de Bragança","country":"PT","coord":{"lon":-6.75,"lat":41.5}}
{"_id":8010466,"name":"Mirandela","country":"PT","coord":{"lon":-7.19185,"lat":41.50098}}
{"_id":8011540,"name":"Mirandela","country":"PT","coord":{"lon":-7.17805,"lat":41.478069}}
{"_id":2737639,"name":"Mirandela","country":"PT","coord":{"lon":-7.18695,"lat":41.487381}}
{"_id":8010618,"name":"Barreiro","country":"PT","coord":{"lon":-9.05168,"lat":38.6376}}
{"_id":8013121,"name":"Barreiro","country":"PT","coord":{"lon":-9.07564,"lat":38.662842}}
{"_id":2271071,"name":"Barreiro","country":"PT","coord":{"lon":-9.0724,"lat":38.663139}}
{"_id":8012380,"name":"Marinha Grande","country":"PT","coord":{"lon":-8.95414,"lat":39.768478}}
{"_id":2266703,"name":"Marinha Grande","country":"PT","coord":{"lon":-8.93228,"lat":39.747688}}
{"_id":2742110,"name":"Borralheira","country":"PT","coord":{"lon":-7.5,"lat":40.283329}}
{"_id":8010436,"name":"Beja","country":"PT","coord":{"lon":-7.87773,"lat":37.987999}}
{"_id":8014513,"name":"Beja (Santa Maria da Feira)","country":"PT","coord":{"lon":-7.84738,"lat":38.043911}}
{"_id":2270985,"name":"Beja","country":"PT","coord":{"lon":-7.86323,"lat":38.01506}}
{"_id":8013143,"name":"Palmela","country":"PT","coord":{"lon":-8.88434,"lat":38.576401}}
{"_id":2265223,"name":"Palmela","country":"PT","coord":{"lon":-8.90126,"lat":38.569019}}
{"_id":8010457,"name":"Vila Nova de Famalicão","country":"PT","coord":{"lon":-8.48511,"lat":41.412231}}
{"_id":2739636,"name":"Ferreiros","country":"PT","coord":{"lon":-8.55,"lat":41.349998}}
{"_id":8010442,"name":"Odemira","country":"PT","coord":{"lon":-8.573,"lat":37.627239}}
{"_id":8010908,"name":"Odemira (São Salvador)","country":"PT","coord":{"lon":-8.63129,"lat":37.637718}}
{"_id":2265472,"name":"Odemira","country":"PT","coord":{"lon":-8.63972,"lat":37.59798}}
{"_id":8010555,"name":"Pombal","country":"PT","coord":{"lon":-8.66949,"lat":39.907349}}
{"_id":8012409,"name":"Pombal","country":"PT","coord":{"lon":-8.63188,"lat":39.920471}}
{"_id":2264575,"name":"Pombal","country":"PT","coord":{"lon":-8.62847,"lat":39.91674}}
{"_id":8010665,"name":"São Pedro do Sul","country":"PT","coord":{"lon":-8.09023,"lat":40.800732}}
{"_id":8013913,"name":"São Félix","country":"PT","coord":{"lon":-8.05319,"lat":40.790379}}
{"_id":2738185,"name":"Loureiro","country":"PT","coord":{"lon":-8.04142,"lat":40.800919}}
{"_id":8010481,"name":"Arganil","country":"PT","coord":{"lon":-7.9811,"lat":40.235298}}
{"_id":8011768,"name":"Teixeira","country":"PT","coord":{"lon":-7.93559,"lat":40.185539}}
{"_id":2733644,"name":"Teixeira","country":"PT","coord":{"lon":-7.94676,"lat":40.184292}}
{"_id":8012456,"name":"Carcavelos","country":"PT","coord":{"lon":-9.33327,"lat":38.6922}}
{"_id":2263352,"name":"Sao Domingos de Rana","country":"PT","coord":{"lon":-9.3276,"lat":38.701229}}
{"_id":8012825,"name":"Duas Igrejas","country":"PT","coord":{"lon":-8.26141,"lat":41.180069}}
{"_id":2736391,"name":"Perafita","country":"PT","coord":{"lon":-8.2545,"lat":41.182522}}
{"_id":8010426,"name":"Oliveira do Bairro","country":"PT","coord":{"lon":-8.56374,"lat":40.509769}}
{"_id":8014795,"name":"Oliveira do Bairro","country":"PT","coord":{"lon":-8.50504,"lat":40.513481}}
{"_id":2737042,"name":"Oliveira do Bairro","country":"PT","coord":{"lon":-8.49386,"lat":40.514599}}
{"_id":8010780,"name":"Escapães","country":"PT","coord":{"lon":-8.50617,"lat":40.92799}}
{"_id":2733034,"name":"Vale Grande","country":"PT","coord":{"lon":-8.51062,"lat":40.921028}}
{"_id":8010590,"name":"Valongo","country":"PT","coord":{"lon":-8.50086,"lat":41.20797}}
{"_id":8012902,"name":"Valongo","country":"PT","coord":{"lon":-8.49864,"lat":41.19175}}
{"_id":2732978,"name":"Valongo","country":"PT","coord":{"lon":-8.51027,"lat":41.195011}}
{"_id":2742203,"name":"Boavista","country":"PT","coord":{"lon":-8.63333,"lat":41.066669}}
{"_id":8010453,"name":"Guimarães","country":"PT","coord":{"lon":-8.3166,"lat":41.456821}}
{"_id":8014420,"name":"Moreira de Cónegos","country":"PT","coord":{"lon":-8.3384,"lat":41.378441}}
{"_id":2737393,"name":"Moreira de Conegos","country":"PT","coord":{"lon":-8.3394,"lat":41.386799}}
{"_id":8014478,"name":"Leça da Palmeira","country":"PT","coord":{"lon":-8.69866,"lat":41.193989}}
{"_id":2735048,"name":"Ródão","country":"PT","coord":{"lon":-8.7,"lat":41.200001}}
{"_id":8013886,"name":"Felgueiras","country":"PT","coord":{"lon":-7.93713,"lat":41.053169}}
{"_id":2739695,"name":"Felgueiras","country":"PT","coord":{"lon":-7.93345,"lat":41.065201}}
{"_id":8010538,"name":"Seia","country":"PT","coord":{"lon":-7.73104,"lat":40.39484}}
{"_id":8012260,"name":"Seia","country":"PT","coord":{"lon":-7.68116,"lat":40.424709}}
{"_id":2734215,"name":"Seia","country":"PT","coord":{"lon":-7.70859,"lat":40.4151}}
{"_id":8010559,"name":"Azambuja","country":"PT","coord":{"lon":-8.89045,"lat":39.145592}}
{"_id":8012443,"name":"Azambuja","country":"PT","coord":{"lon":-8.86897,"lat":39.075241}}
{"_id":2271337,"name":"Azambuja","country":"PT","coord":{"lon":-8.86822,"lat":39.07029}}
{"_id":8012549,"name":"Montelavar","country":"PT","coord":{"lon":-9.31581,"lat":38.869678}}
{"_id":2265900,"name":"Montelavar","country":"PT","coord":{"lon":-9.33281,"lat":38.860531}}
{"_id":8013046,"name":"Santarém (Marvila)","country":"PT","coord":{"lon":-8.69283,"lat":39.203079}}
{"_id":2263480,"name":"Santarem","country":"PT","coord":{"lon":-8.68333,"lat":39.23333}}
{"_id":8010420,"name":"Estarreja","country":"PT","coord":{"lon":-8.57917,"lat":40.754631}}
{"_id":8010770,"name":"Avanca","country":"PT","coord":{"lon":-8.57226,"lat":40.806591}}
{"_id":2734272,"name":"Sardinha","country":"PT","coord":{"lon":-8.57128,"lat":40.796761}}
{"_id":8014125,"name":"São João da Talha","country":"PT","coord":{"lon":-9.09881,"lat":38.825401}}
{"_id":2263326,"name":"Sao Joao da Talha","country":"PT","coord":{"lon":-9.09079,"lat":38.821831}}
{"_id":8010783,"name":"Fiães","country":"PT","coord":{"lon":-8.52289,"lat":40.984348}}
{"_id":2735327,"name":"Regadio","country":"PT","coord":{"lon":-8.51212,"lat":40.981461}}
{"_id":8012909,"name":"Fajozes","country":"PT","coord":{"lon":-8.70285,"lat":41.321499}}
{"_id":2739773,"name":"Fajozes","country":"PT","coord":{"lon":-8.6956,"lat":41.327591}}
{"_id":2735552,"name":"Quinta Nova","country":"PT","coord":{"lon":-8.60963,"lat":41.23587}}
{"_id":8010473,"name":"Castelo Branco","country":"PT","coord":{"lon":-7.51313,"lat":39.88847}}
{"_id":8011652,"name":"Castelo Branco","country":"PT","coord":{"lon":-7.52194,"lat":39.823318}}
{"_id":2269514,"name":"Castelo Branco","country":"PT","coord":{"lon":-7.49087,"lat":39.822189}}
{"_id":8010428,"name":"São João da Madeira","country":"PT","coord":{"lon":-8.49283,"lat":40.89772}}
{"_id":8014210,"name":"São João da Madeira","country":"PT","coord":{"lon":-8.49283,"lat":40.89772}}
{"_id":2734484,"name":"Sao Joao da Madeira","country":"PT","coord":{"lon":-8.48969,"lat":40.90229}}
{"_id":8011176,"name":"Brito","country":"PT","coord":{"lon":-8.36247,"lat":41.456039}}
{"_id":2741985,"name":"Brito","country":"PT","coord":{"lon":-8.36103,"lat":41.45821}}
{"_id":8010588,"name":"Póvoa de Varzim","country":"PT","coord":{"lon":-8.75713,"lat":41.391579}}
{"_id":8012868,"name":"Argivai","country":"PT","coord":{"lon":-8.73325,"lat":41.375961}}
{"_id":2741143,"name":"Casal do Monte","country":"PT","coord":{"lon":-8.73516,"lat":41.368649}}
{"_id":8012750,"name":"Nogueira","country":"PT","coord":{"lon":-8.58461,"lat":41.234032}}
{"_id":2737150,"name":"Nogueira","country":"PT","coord":{"lon":-8.58685,"lat":41.242458}}
{"_id":8010495,"name":"Soure","country":"PT","coord":{"lon":-8.6277,"lat":40.06879}}
{"_id":8011891,"name":"Gesteira","country":"PT","coord":{"lon":-8.67071,"lat":40.073761}}
{"_id":2741404,"name":"Carregosa","country":"PT","coord":{"lon":-8.67248,"lat":40.086441}}
{"_id":8014130,"name":"Venda do Pinheiro","country":"PT","coord":{"lon":-9.22512,"lat":38.927792}}
{"_id":2269906,"name":"Casa do Ninho","country":"PT","coord":{"lon":-9.23333,"lat":38.916672}}
{"_id":8010658,"name":"Nelas","country":"PT","coord":{"lon":-7.88259,"lat":40.529461}}
{"_id":8013851,"name":"Nelas","country":"PT","coord":{"lon":-7.85219,"lat":40.519989}}
{"_id":2737184,"name":"Nelas","country":"PT","coord":{"lon":-7.85152,"lat":40.532162}}
{"_id":8012595,"name":"Famões","country":"PT","coord":{"lon":-9.20916,"lat":38.793419}}
{"_id":2265303,"name":"Paiã","country":"PT","coord":{"lon":-9.2,"lat":38.783329}}
{"_id":8010568,"name":"Vila Franca de Xira","country":"PT","coord":{"lon":-9.0322,"lat":38.921371}}
{"_id":8014802,"name":"Alverca do Ribatejo","country":"PT","coord":{"lon":-9.04289,"lat":38.90493}}
{"_id":2271797,"name":"Alverca","country":"PT","coord":{"lon":-9.03864,"lat":38.898979}}
{"_id":8010491,"name":"Oliveira do Hospital","country":"PT","coord":{"lon":-7.86481,"lat":40.355221}}
{"_id":8011835,"name":"Aldeia das Dez","country":"PT","coord":{"lon":-7.86449,"lat":40.296982}}
{"_id":2734130,"name":"Senhora das Preces","country":"PT","coord":{"lon":-7.85202,"lat":40.28064}}
{"_id":8012581,"name":"Vialonga","country":"PT","coord":{"lon":-9.08458,"lat":38.870781}}
{"_id":2271872,"name":"Alpriate","country":"PT","coord":{"lon":-9.09248,"lat":38.86314}}
{"_id":8010541,"name":"Alcobaça","country":"PT","coord":{"lon":-8.98833,"lat":39.554409}}
{"_id":8012306,"name":"Alcobaça","country":"PT","coord":{"lon":-8.97692,"lat":39.55022}}
{"_id":2272147,"name":"Alcobaca","country":"PT","coord":{"lon":-8.9775,"lat":39.552231}}
{"_id":8010611,"name":"Tomar","country":"PT","coord":{"lon":-8.39346,"lat":39.610401}}
{"_id":8013070,"name":"Santa Maria Dos Olivais","country":"PT","coord":{"lon":-8.38472,"lat":39.601082}}
{"_id":2262644,"name":"Tomar","country":"PT","coord":{"lon":-8.40924,"lat":39.60199}}
{"_id":8013732,"name":"Vila Real (São Pedro)","country":"PT","coord":{"lon":-7.73614,"lat":41.295689}}
{"_id":2732438,"name":"Vila Real","country":"PT","coord":{"lon":-7.74413,"lat":41.300621}}
{"_id":8010544,"name":"Batalha","country":"PT","coord":{"lon":-8.78108,"lat":39.647839}}
{"_id":8014237,"name":"Reguengo do Fetal","country":"PT","coord":{"lon":-8.76514,"lat":39.64312}}
{"_id":2263977,"name":"Reguengo do Fetal","country":"PT","coord":{"lon":-8.76367,"lat":39.640659}}
{"_id":8012544,"name":"Queijas","country":"PT","coord":{"lon":-9.26166,"lat":38.721062}}
{"_id":6930155,"name":"Queijas","country":"PT","coord":{"lon":-9.26336,"lat":38.71907}}
{"_id":8010586,"name":"Paredes","country":"PT","coord":{"lon":-8.37506,"lat":41.205009}}
{"_id":8012805,"name":"Gandra","country":"PT","coord":{"lon":-8.43129,"lat":41.192501}}
{"_id":2739080,"name":"Gandra","country":"PT","coord":{"lon":-8.43376,"lat":41.20116}}
{"_id":8010512,"name":"Albufeira","country":"PT","coord":{"lon":-8.26139,"lat":37.083408}}
{"_id":8011969,"name":"Albufeira","country":"PT","coord":{"lon":-8.26606,"lat":37.07827}}
{"_id":2272222,"name":"Albufeira","country":"PT","coord":{"lon":-8.2503,"lat":37.088188}}
{"_id":8010583,"name":"Marco de Canaveses","country":"PT","coord":{"lon":-8.16954,"lat":41.155449}}
{"_id":8012777,"name":"Tuias","country":"PT","coord":{"lon":-8.165,"lat":41.175091}}
{"_id":2737921,"name":"Marco de Canavezes","country":"PT","coord":{"lon":-8.14864,"lat":41.183891}}
{"_id":2263310,"name":"São Julião da Barra","country":"PT","coord":{"lon":-9.33333,"lat":38.683331}}
{"_id":8010640,"name":"Mesão Frio","country":"PT","coord":{"lon":-7.87284,"lat":41.1619}}
{"_id":8013603,"name":"Barqueiros","country":"PT","coord":{"lon":-7.89956,"lat":41.132999}}
{"_id":2735551,"name":"Quintão","country":"PT","coord":{"lon":-7.90204,"lat":41.13232}}
{"_id":2741052,"name":"Castanheira","country":"PT","coord":{"lon":-7.08084,"lat":40.57391}}
{"_id":8010589,"name":"Santo Tirso","country":"PT","coord":{"lon":-8.43827,"lat":41.330139}}
{"_id":8012883,"name":"Lama","country":"PT","coord":{"lon":-8.46218,"lat":41.36182}}
{"_id":2742144,"name":"Bolas","country":"PT","coord":{"lon":-8.4687,"lat":41.35738}}
{"_id":8011833,"name":"Bom Sucesso","country":"PT","coord":{"lon":-8.81139,"lat":40.283829}}
{"_id":2742135,"name":"Bom Sucesso","country":"PT","coord":{"lon":-8.77952,"lat":40.264141}}
{"_id":8010722,"name":"Arcos","country":"PT","coord":{"lon":-8.43815,"lat":40.450031}}
{"_id":2742908,"name":"Anadia","country":"PT","coord":{"lon":-8.43352,"lat":40.438412}}
{"_id":8012854,"name":"Campanhã","country":"PT","coord":{"lon":-8.57321,"lat":41.159561}}
{"_id":2738845,"name":"Granja","country":"PT","coord":{"lon":-8.56667,"lat":41.150002}}
{"_id":8010515,"name":"Castro Marim","country":"PT","coord":{"lon":-7.50732,"lat":37.258652}}
{"_id":8011983,"name":"Castro Marim","country":"PT","coord":{"lon":-7.47596,"lat":37.225639}}
{"_id":2269496,"name":"Castro Marim","country":"PT","coord":{"lon":-7.4435,"lat":37.22068}}
{"_id":8010554,"name":"Peniche","country":"PT","coord":{"lon":-9.36869,"lat":39.36166}}
{"_id":8012397,"name":"Peniche (Conceição)","country":"PT","coord":{"lon":-9.3879,"lat":39.359989}}
{"_id":2264923,"name":"Peniche","country":"PT","coord":{"lon":-9.38112,"lat":39.355801}}
{"_id":8012931,"name":"Avintes","country":"PT","coord":{"lon":-8.54672,"lat":41.104279}}
{"_id":2742565,"name":"Avintes","country":"PT","coord":{"lon":-8.54986,"lat":41.11747}}
{"_id":6930689,"name":"Alter do Chão","country":"PT","coord":{"lon":-7.7443,"lat":39.23098}}
{"_id":6930690,"name":"Alter do Chão","country":"PT","coord":{"lon":-7.64822,"lat":39.190941}}
{"_id":2271841,"name":"Alter do Chao","country":"PT","coord":{"lon":-7.65893,"lat":39.197411}}
{"_id":8012717,"name":"Valbom","country":"PT","coord":{"lon":-8.56229,"lat":41.137341}}
{"_id":2735170,"name":"Ribeira do Abade","country":"PT","coord":{"lon":-8.56667,"lat":41.133331}}
{"_id":8012455,"name":"Alcabideche","country":"PT","coord":{"lon":-9.47522,"lat":38.75108}}
{"_id":2270519,"name":"Cabreiro","country":"PT","coord":{"lon":-9.4228,"lat":38.731758}}
{"_id":8012002,"name":"Almansil","country":"PT","coord":{"lon":-8.01058,"lat":37.05912}}
{"_id":2271947,"name":"Almancil","country":"PT","coord":{"lon":-8.03074,"lat":37.086861}}
{"_id":8013169,"name":"Ázere","country":"PT","coord":{"lon":-8.39704,"lat":41.861198}}
{"_id":2737268,"name":"Mozelos","country":"PT","coord":{"lon":-8.39776,"lat":41.867741}}
{"_id":8012779,"name":"Guifões","country":"PT","coord":{"lon":-8.66847,"lat":41.205582}}
{"_id":2741214,"name":"Casal","country":"PT","coord":{"lon":-8.66667,"lat":41.200001}}
{"_id":8010425,"name":"Oliveira de Azeméis","country":"PT","coord":{"lon":-8.46945,"lat":40.85078}}
{"_id":8014438,"name":"Oliveira de Azeméis","country":"PT","coord":{"lon":-8.47029,"lat":40.84288}}
{"_id":2739582,"name":"Figueiredo","country":"PT","coord":{"lon":-8.47876,"lat":40.840679}}
{"_id":8010778,"name":"Arrifana","country":"PT","coord":{"lon":-8.50596,"lat":40.91114}}
{"_id":2742681,"name":"Arrifana","country":"PT","coord":{"lon":-8.49657,"lat":40.915649}}
{"_id":8010797,"name":"Souto","country":"PT","coord":{"lon":-8.56044,"lat":40.89426}}
{"_id":2738064,"name":"Macieira","country":"PT","coord":{"lon":-8.55282,"lat":40.91106}}
{"_id":8012536,"name":"Milharado","country":"PT","coord":{"lon":-9.22059,"lat":38.94313}}
{"_id":2266411,"name":"Milharado","country":"PT","coord":{"lon":-9.19914,"lat":38.947319}}
{"_id":8010414,"name":"Albergaria-A-Velha","country":"PT","coord":{"lon":-8.50399,"lat":40.687061}}
{"_id":8010718,"name":"Branca","country":"PT","coord":{"lon":-8.49214,"lat":40.74691}}
{"_id":2742024,"name":"Branca","country":"PT","coord":{"lon":-8.48262,"lat":40.766529}}
{"_id":8013156,"name":"Corroios","country":"PT","coord":{"lon":-9.15075,"lat":38.614712}}
{"_id":2269041,"name":"Corroios","country":"PT","coord":{"lon":-9.14843,"lat":38.64502}}
{"_id":2742619,"name":"Atouguia","country":"PT","coord":{"lon":-8.74795,"lat":40.055431}}
{"_id":8010775,"name":"Salreu","country":"PT","coord":{"lon":-8.5666,"lat":40.740929}}
{"_id":2742842,"name":"Antuã","country":"PT","coord":{"lon":-8.56316,"lat":40.75087}}
{"_id":8010620,"name":"Moita","country":"PT","coord":{"lon":-9.0104,"lat":38.658539}}
{"_id":8013132,"name":"Moita","country":"PT","coord":{"lon":-8.97176,"lat":38.64032}}
{"_id":2266319,"name":"Moita","country":"PT","coord":{"lon":-8.99038,"lat":38.65078}}
{"_id":8014232,"name":"Caldas da Rainha (Nossa Senhora do Pópulo)","country":"PT","coord":{"lon":-9.12087,"lat":39.403042}}
{"_id":2270437,"name":"Caldas da Rainha","country":"PT","coord":{"lon":-9.13839,"lat":39.403259}}
{"_id":8010451,"name":"Esposende","country":"PT","coord":{"lon":-8.75754,"lat":41.545158}}
{"_id":8011132,"name":"Marinhas","country":"PT","coord":{"lon":-8.77764,"lat":41.552711}}
{"_id":2735135,"name":"Rio","country":"PT","coord":{"lon":-8.78768,"lat":41.548439}}
{"_id":8010585,"name":"Paços de Ferreira","country":"PT","coord":{"lon":-8.37584,"lat":41.289639}}
{"_id":8012789,"name":"Frazão","country":"PT","coord":{"lon":-8.40554,"lat":41.262939}}
{"_id":2739286,"name":"Frazao","country":"PT","coord":{"lon":-8.40014,"lat":41.258659}}
{"_id":2261587,"name":"Vilãs","country":"PT","coord":{"lon":-9.3316,"lat":38.929722}}
{"_id":8012331,"name":"Batalha","country":"PT","coord":{"lon":-8.83245,"lat":39.657459}}
{"_id":2264131,"name":"Quinta do Sobrado","country":"PT","coord":{"lon":-8.82753,"lat":39.647598}}
{"_id":8010497,"name":"Vila Nova de Poiares","country":"PT","coord":{"lon":-8.24105,"lat":40.221291}}
{"_id":8011907,"name":"Arrifana","country":"PT","coord":{"lon":-8.29248,"lat":40.221722}}
{"_id":2742685,"name":"Arrifana","country":"PT","coord":{"lon":-8.27397,"lat":40.22411}}
{"_id":8010746,"name":"Cacia","country":"PT","coord":{"lon":-8.62494,"lat":40.690151}}
{"_id":2741789,"name":"Cacia","country":"PT","coord":{"lon":-8.59756,"lat":40.684349}}
{"_id":8014007,"name":"Torredeita","country":"PT","coord":{"lon":-8.0282,"lat":40.642502}}
{"_id":2737112,"name":"Novais","country":"PT","coord":{"lon":-8.02083,"lat":40.631889}}
{"_id":8012596,"name":"Odivelas","country":"PT","coord":{"lon":-9.18183,"lat":38.791302}}
{"_id":2264580,"name":"Pombais","country":"PT","coord":{"lon":-9.18712,"lat":38.785881}}
{"_id":8012935,"name":"Grijó","country":"PT","coord":{"lon":-8.58147,"lat":41.030579}}
{"_id":2738784,"name":"Guarda","country":"PT","coord":{"lon":-8.58544,"lat":41.036911}}
{"_id":8012367,"name":"Maceira","country":"PT","coord":{"lon":-8.89784,"lat":39.688728}}
{"_id":2271539,"name":"Arnal","country":"PT","coord":{"lon":-8.87917,"lat":39.68782}}
{"_id":8010524,"name":"Silves","country":"PT","coord":{"lon":-8.33472,"lat":37.20343}}
{"_id":8012027,"name":"Silves","country":"PT","coord":{"lon":-8.4418,"lat":37.224159}}
{"_id":2262926,"name":"Silves","country":"PT","coord":{"lon":-8.43822,"lat":37.189209}}
{"_id":8011319,"name":"Mogege","country":"PT","coord":{"lon":-8.4115,"lat":41.422409}}
{"_id":2737597,"name":"Mogege","country":"PT","coord":{"lon":-8.41285,"lat":41.426239}}
{"_id":8011302,"name":"Calendário","country":"PT","coord":{"lon":-8.5331,"lat":41.391319}}
{"_id":2741724,"name":"Calendario","country":"PT","coord":{"lon":-8.52967,"lat":41.40361}}
{"_id":8010621,"name":"Montijo","country":"PT","coord":{"lon":-8.83547,"lat":38.69825}}
{"_id":8013136,"name":"Montijo","country":"PT","coord":{"lon":-8.99083,"lat":38.705688}}
{"_id":2265788,"name":"Montijo","country":"PT","coord":{"lon":-8.97388,"lat":38.706749}}
{"_id":8010418,"name":"Castelo de Paiva","country":"PT","coord":{"lon":-8.29822,"lat":41.033531}}
{"_id":8010761,"name":"Pedorido","country":"PT","coord":{"lon":-8.3791,"lat":41.027561}}
{"_id":2736579,"name":"Pedorido","country":"PT","coord":{"lon":-8.38017,"lat":41.047428}}
{"_id":8010623,"name":"Santiago do Cacém","country":"PT","coord":{"lon":-8.67577,"lat":38.025021}}
{"_id":8013147,"name":"Alvalade","country":"PT","coord":{"lon":-8.38291,"lat":37.920719}}
{"_id":2271812,"name":"Alvalade","country":"PT","coord":{"lon":-8.39247,"lat":37.936798}}
{"_id":2733531,"name":"Tondela","country":"PT","coord":{"lon":-8.1004,"lat":40.54052}}
{"_id":8013974,"name":"Tondela","country":"PT","coord":{"lon":-8.08856,"lat":40.50877}}
{"_id":2733533,"name":"Tondela","country":"PT","coord":{"lon":-8.08333,"lat":40.51667}}
{"_id":8011661,"name":"Boidobra","country":"PT","coord":{"lon":-7.4693,"lat":40.261688}}
{"_id":2742153,"name":"Boidobra","country":"PT","coord":{"lon":-7.49158,"lat":40.253262}}
{"_id":8011970,"name":"Guia","country":"PT","coord":{"lon":-8.29183,"lat":37.110222}}
{"_id":2262274,"name":"Vale da Ursa","country":"PT","coord":{"lon":-8.28649,"lat":37.112179}}
{"_id":8010663,"name":"Santa Comba Dão","country":"PT","coord":{"lon":-8.1138,"lat":40.404419}}
{"_id":8013895,"name":"Santa Comba Dão","country":"PT","coord":{"lon":-8.13916,"lat":40.389561}}
{"_id":2734747,"name":"Santa Comba Dão","country":"PT","coord":{"lon":-8.1316,"lat":40.39856}}
{"_id":8010577,"name":"Amarante","country":"PT","coord":{"lon":-8.06503,"lat":41.2705}}
{"_id":8012637,"name":"Carneiro","country":"PT","coord":{"lon":-7.96491,"lat":41.213371}}
{"_id":2741464,"name":"Carneiro","country":"PT","coord":{"lon":-7.96861,"lat":41.218479}}
{"_id":8010598,"name":"Benavente","country":"PT","coord":{"lon":-8.76898,"lat":38.908001}}
{"_id":8012983,"name":"Samora Correia","country":"PT","coord":{"lon":-8.83623,"lat":38.841061}}
{"_id":2263586,"name":"Samora Correia","country":"PT","coord":{"lon":-8.87178,"lat":38.937092}}
{"_id":8012660,"name":"Telões","country":"PT","coord":{"lon":-8.10445,"lat":41.311779}}
{"_id":2733601,"name":"Teloes","country":"PT","coord":{"lon":-8.11101,"lat":41.310539}}
{"_id":8010579,"name":"Felgueiras","country":"PT","coord":{"lon":-8.20808,"lat":41.34774}}
{"_id":8012695,"name":"Regilde","country":"PT","coord":{"lon":-8.26547,"lat":41.365089}}
{"_id":2735317,"name":"Regilde","country":"PT","coord":{"lon":-8.26653,"lat":41.367271}}
{"_id":2264410,"name":"Porto Moscal","country":"PT","coord":{"lon":-9.05,"lat":38.599998}}
{"_id":8014686,"name":"Nogueira do Cravo","country":"PT","coord":{"lon":-8.45046,"lat":40.887058}}
{"_id":2734038,"name":"Serro","country":"PT","coord":{"lon":-8.45945,"lat":40.88586}}
{"_id":8010646,"name":"Sabrosa","country":"PT","coord":{"lon":-7.5902,"lat":41.253181}}
{"_id":8014418,"name":"São Lourenço de Ribapinhão","country":"PT","coord":{"lon":-7.5937,"lat":41.309219}}
{"_id":2734243,"name":"Saudel","country":"PT","coord":{"lon":-7.5942,"lat":41.316059}}
{"_id":8010654,"name":"Lamego","country":"PT","coord":{"lon":-7.81694,"lat":41.082539}}
{"_id":8013797,"name":"Cambres","country":"PT","coord":{"lon":-7.80247,"lat":41.139061}}
{"_id":2735889,"name":"Pousada","country":"PT","coord":{"lon":-7.81793,"lat":41.131592}}
{"_id":8010441,"name":"Moura","country":"PT","coord":{"lon":-7.29677,"lat":38.131481}}
{"_id":8014088,"name":"Póvoa de São Miguel","country":"PT","coord":{"lon":-7.35835,"lat":38.247391}}
{"_id":2268416,"name":"Estrela","country":"PT","coord":{"lon":-7.38902,"lat":38.268799}}
{"_id":8010595,"name":"Alcanena","country":"PT","coord":{"lon":-8.68831,"lat":39.467461}}
{"_id":8012970,"name":"Alcanena","country":"PT","coord":{"lon":-8.66026,"lat":39.458641}}
{"_id":2272189,"name":"Alcanena","country":"PT","coord":{"lon":-8.66892,"lat":39.459}}
{"_id":8010651,"name":"Armamar","country":"PT","coord":{"lon":-7.68553,"lat":41.097179}}
{"_id":8013748,"name":"Santo Adrião","country":"PT","coord":{"lon":-7.63456,"lat":41.134499}}
{"_id":2734624,"name":"Santo Adrião","country":"PT","coord":{"lon":-7.6376,"lat":41.12569}}
{"_id":8012710,"name":"Fânzeres","country":"PT","coord":{"lon":-8.53116,"lat":41.17128}}
{"_id":2736911,"name":"Paço","country":"PT","coord":{"lon":-8.5335,"lat":41.168751}}
{"_id":8012809,"name":"Madalena","country":"PT","coord":{"lon":-8.3356,"lat":41.216648}}
{"_id":2738038,"name":"Madalena","country":"PT","coord":{"lon":-8.33451,"lat":41.21616}}
{"_id":8010628,"name":"Caminha","country":"PT","coord":{"lon":-8.80133,"lat":41.84647}}
{"_id":8013220,"name":"Lanhelas","country":"PT","coord":{"lon":-8.79104,"lat":41.906361}}
{"_id":2738413,"name":"Lanhelas","country":"PT","coord":{"lon":-8.79058,"lat":41.907349}}
{"_id":8012867,"name":"Amorim","country":"PT","coord":{"lon":-8.74847,"lat":41.40826}}
{"_id":2733954,"name":"Sistelos","country":"PT","coord":{"lon":-8.74837,"lat":41.404251}}
{"_id":8010664,"name":"São João da Pesqueira","country":"PT","coord":{"lon":-7.43382,"lat":41.11079}}
{"_id":8013900,"name":"Espinhosa","country":"PT","coord":{"lon":-7.48927,"lat":41.08918}}
{"_id":2739864,"name":"Espinhosa","country":"PT","coord":{"lon":-7.48107,"lat":41.091179}}
{"_id":8010652,"name":"Castro Daire","country":"PT","coord":{"lon":-7.93878,"lat":40.922791}}
{"_id":8013771,"name":"Moledo","country":"PT","coord":{"lon":-7.87935,"lat":40.81913}}
{"_id":2738481,"name":"Lamas","country":"PT","coord":{"lon":-7.91321,"lat":40.83189}}
{"_id":8010486,"name":"Góis","country":"PT","coord":{"lon":-8.0834,"lat":40.125351}}
{"_id":8011836,"name":"Alvares","country":"PT","coord":{"lon":-8.09573,"lat":40.027512}}
{"_id":2742994,"name":"Alvares","country":"PT","coord":{"lon":-8.09934,"lat":40.017071}}
{"_id":8012784,"name":"Carvalhosa","country":"PT","coord":{"lon":-8.36866,"lat":41.293839}}
{"_id":2741266,"name":"Carvalhosa","country":"PT","coord":{"lon":-8.3608,"lat":41.300571}}
{"_id":8010537,"name":"Sabugal","country":"PT","coord":{"lon":-7.09305,"lat":40.369919}}
{"_id":8012236,"name":"Sabugal","country":"PT","coord":{"lon":-7.05199,"lat":40.336552}}
